stationName,Address,City,State,postalCode,Lat,Long,Charger type,Charger type (legend),stationModel,StationNetworkStatus,LastPortStatus,faultReason,station_label,ports_total,ports_charging,ports_occupied,ports_available,StatusTimestamp,hours_unreachable,_loaded_at_utc
NYC FLEET / DPR_OVERLOOK_1,80-30 Park Ln,Kew Gardens,New York,11415,40.710747,-73.8358,Level 2,Level 2,CT4020-HD-GW,Reachable,INUSE,NONE,Occupied,2,0,2,0,2025-11-19T10:27:13Z,0.0,2025-11-19T10:31:52.196106+00:00
NYC FLEET / DEP_ASHOKANBNL2,2471 B W S Rd,Olivebridge,New York,12461,41.946423,-74.202065,Level 2,Level 2,CT4020-HD-GW,Reachable,INUSE,NONE,Occupied,2,0,2,0,2025-11-19T10:26:08Z,0.0,2025-11-19T10:31:52.196106+00:00
NYC FLEET / DEP_ASHOKANBNL1,2471 B W S Rd,Olivebridge,New York,12461,41.94639,-74.202095,Level 2,Level 2,CT4020-HD-GW,Reachable,INUSE,NONE,Available,2,0,1,1,2025-11-19T10:26:19Z,0.0,2025-11-19T10:31:52.196106+00:00
NYC FLEET / DEP_ARKVILLE-1,Co Rd 38,Arkville,New York,12406,42.158012,-74.61989,Level 2,Level 2,CT4020-HD-GW,Reachable,AVAILABLE,NONE,Available,2,0,0,2,2025-11-19T10:27:51Z,0.0,2025-11-19T10:31:52.196106+00:00
NYC FLEET / DHS_BKLMNR_1_L3,300 Skillman Ave,Brooklyn,New York,11211,40.7167635,-73.938413,Level 3,Level 3,CPE250C-500-CCS1-CHD,Reachable,INUSE,NONE,Occupied,1,0,1,0,2025-11-19T10:28:45Z,0.0,2025-11-19T10:31:52.196106+00:00
NYC FLEET / DPROMSTDFOR#8#9,12 Olmsted Dr,Corona,New York,11368,40.75164690397372,-73.84783852123547,Level 2,Level 2,CT4020-HD-GW,Reachable,INUSE,NONE,Occupied,2,0,2,0,2025-11-19T10:25:54Z,0.0,2025-11-19T10:31:52.196106+00:00
NYC FLEET / DPRSISHOPS#1#2,21 Slosson Ave,staten island,New York,10314,40.6203137,-74.11848359999999,Level 2,Level 2,CT4020-HD-GW,Reachable,INUSE,NONE,Available,2,0,1,1,2025-11-19T10:23:55Z,0.0,2025-11-19T10:31:52.196106+00:00
NYC FLEET / DPRBXFORST#3A-B,1 Bronx River Pkwy,Bronx,New York,10462,40.84728868064645,-73.86959367962339,Level 2,Level 2,CT4020-HD-GW,Reachable,INUSE,NONE,Occupied,2,0,2,0,2025-11-19T10:21:44Z,0.0,2025-11-19T10:31:52.196106+00:00
NYC FLEET / DPRQNSSTHSE#3#4,43 Flushing Meadows Corona Park Rd CORONA PARK,QUEENS,New York,11368,40.752987496895024,-73.8375629423291,Level 2,Level 2,CT4020-HD-GW,Reachable,AVAILABLE,NONE,Available,2,0,0,2,2025-11-19T10:24:19Z,0.0,2025-11-19T10:31:52.196106+00:00
NYC FLEET / DPRBXFORST#2A-B,1 Bronx River Pkwy,Bronx,New York,10462,40.847296280156996,-73.86944303358649,Level 2,Level 2,CT4020-HD-GW,Reachable,INUSE,NONE,Occupied,2,0,2,0,2025-11-19T10:23:05Z,0.0,2025-11-19T10:31:52.196106+00:00
NYC FLEET / DPRSID1HDQT#1#2,1150 Clove Rd,Staten Island,New York,10301,40.618496815350994,-74.1073751021301,Level 2,Level 2,CT4020-HD-GW,Reachable,AVAILABLE,NONE,Available,2,0,0,2,2025-11-19T10:24:47Z,0.0,2025-11-19T10:31:52.196106+00:00
NYC FLEET / DPRLITCHFLD2A-B,95 Prospect Park West,Brooklyn,New York,11215,40.66637668149932,-73.97387502513124,Level 2,Level 2,CT4020-HD-GW,Reachable,INUSE,NONE,Occupied,2,0,2,0,2025-11-19T10:28:58Z,0.0,2025-11-19T10:31:52.196106+00:00
NYC FLEET / DPRBUSHWINL#3#4,2-42 N 10th St,Williamsburg,New York,11249,40.72216192086305,-73.96048327731552,Level 2,Level 2,CT4020-HD-GW,Reachable,AVAILABLE,NONE,Available,2,0,0,2,2025-11-19T10:21:50Z,0.0,2025-11-19T10:31:52.196106+00:00
NYC FLEET / DPRLITCHFLD3A-B,95 Prospect Park West,Brooklyn,New York,11215,40.666943555176495,-73.97391921352653,Level 2,Level 2,CT4020-HD-GW,Reachable,INUSE,NONE,Occupied,2,0,2,0,2025-11-19T10:20:59Z,0.0,2025-11-19T10:31:52.196106+00:00
NYC FLEET / DSNY_BX12-2,1635 E 233rd St,East Bronx,New York,10466,40.888596,-73.8274,Level 2,Level 2,CT4020-HD-GW,Reachable,INUSE,NONE,Charging,2,1,1,0,2025-11-19T10:21:30Z,0.0,2025-11-19T10:31:52.196106+00:00
NYC FLEET / DSNY_MN02_DCFC1,353 Spring St,New York,New York,10013,40.726295,-74.01048,Level 3,Level 3,CPE250C-500-CCS1-CHD,Reachable,INUSE,NONE,Occupied,1,0,1,0,2025-11-19T10:25:47Z,0.0,2025-11-19T10:31:52.196106+00:00
NYC FLEET / DSNY_MN02_DCFC2,353 Spring St,New York,New York,10013,40.726326,-74.010544,Level 3,Level 3,CPE250C-500-CCS1-CHD,Reachable,AVAILABLE,NONE,Available,1,0,0,1,2025-11-19T10:27:38Z,0.0,2025-11-19T10:31:52.196106+00:00
NYC FLEET / DSNY_MN05_DCFC1,353 Spring St,New York,New York,10013,40.726376,-74.01059,Level 3,Level 3,CPE250C-500-CCS1-CHD,Reachable,AVAILABLE,NONE,Available,1,0,0,1,2025-11-19T10:22:51Z,0.0,2025-11-19T10:31:52.196106+00:00
NYC FLEET / DEP_JEROME_1_L3,3201 Jerome Ave,West Bronx,New York,10468,40.87829,-73.887024,Level 3,Level 3,CPE250C-500-CCS1-CHD,Reachable,AVAILABLE,NONE,Available,1,0,0,1,2025-11-19T10:23:17Z,0.0,2025-11-19T10:31:52.196106+00:00
NYC FLEET / DSNY_BX12-3,1635 E 233rd St,East Bronx,New York,10466,40.88857,-73.82722,Level 2,Level 2,CT4020-HD-GW,Reachable,AVAILABLE,NONE,Available,2,0,0,2,2025-11-19T10:29:45Z,0.0,2025-11-19T10:31:52.196106+00:00
NYC FLEET / DCAS_1CENTRE-S1,1 Centre St,New York,New York,10007,40.712931,-74.00374799999997,Level 2,Level 2 - Solar,CT4010-HD-GW,Reachable,AVAILABLE,NONE,Available,1,0,0,1,2025-11-19T10:20:24Z,0.0,2025-11-19T10:31:52.196106+00:00
NYC FLEET / DSNY_BX12-4,1635 E 233rd St,East Bronx,New York,10466,40.888496,-73.82737,Level 2,Level 2,CT4020-HD-GW,Reachable,AVAILABLE,NONE,Available,2,0,0,2,2025-11-19T10:21:46Z,0.0,2025-11-19T10:31:52.196106+00:00
NYC FLEET / DEP_PRDGT_1_L3,1875 Ralph Ave,Bergen Beach,New York,11234,40.629932,-73.91689,Level 3,Level 3,CPE250C-500-CCS1-CHD,Reachable,AVAILABLE,NONE,Available,1,0,0,1,2025-11-19T10:23:36Z,0.0,2025-11-19T10:31:52.196106+00:00
NYC FLEET / DPR_ALLIED4,15 East Rd,Corona,New York,11368,40.753674,-73.83836,Level 2,Level 2,CT4020-HD2-GW-LTE,Reachable,INUSE,NONE,Available,2,0,1,1,2025-11-19T10:24:26Z,0.0,2025-11-19T10:31:52.196106+00:00
NYC FLEET / DPR_ALLIED3,15 East Rd,Corona,New York,11368,40.75362,-73.8383,Level 2,Level 2,CT4020-HD-GW,Reachable,AVAILABLE,NONE,Available,2,0,1,1,2025-11-19T10:26:19Z,0.0,2025-11-19T10:31:52.196106+00:00
NYC FLEET / NYPD_ARCHERGN-1,92-33 168th St,Queens,New York,11433,40.705594574934054,-73.79178776963472,Level 2,Level 2,CT4010-HD-GW,Reachable,AVAILABLE,NONE,Available,1,0,0,1,2025-11-19T10:21:31Z,0.0,2025-11-19T10:31:52.196106+00:00
NYC FLEET / NYPD_ARCHERGN-2,92-33 168th St,Queens,New York,11433,40.70559,-73.79177,Level 2,Level 2,CT4010-HD-GW,Unreachable,NEEDS SERVICE,Station Unreachable,Available,1,0,0,1,2024-12-13T11:19:44Z,0.0,2025-11-19T10:31:52.196106+00:00
NYC FLEET / DPRQNSSTHSE#1#2,43 Flushing Meadows Corona Park Rd,Queens,New York,11368,40.75299289267436,-73.83761065563056,Level 2,Level 2,CT4020-HD2-GW-LTE,Reachable,AVAILABLE,NONE,Available,2,0,0,2,2025-11-19T10:20:13Z,0.0,2025-11-19T10:31:52.196106+00:00
NYC FLEET / DPR_LRP#1#2,42-12 Queens Plaza S,Long Island City,New York,11101,40.7529899,-73.947339,Level 2,Level 2,CT4020-HD2-GW-LTE,Reachable,AVAILABLE,NONE,Available,2,0,1,1,2025-11-19T10:22:43Z,0.0,2025-11-19T10:31:52.196106+00:00
NYC FLEET / DPROMSTDFOR#6#7,12 Olmsted Dr,Corona,New York,11368,40.75161185373593,-73.84781236969764,Level 2,Level 2,CT4020-HD-GW,Reachable,INUSE,NONE,Occupied,2,0,2,0,2025-11-19T10:27:20Z,0.0,2025-11-19T10:31:52.196106+00:00
NYC FLEET / DPRSLNURSER1A-B,858-918 Victory Blvd,Staten Island,New York,10301,40.62321744676665,-74.09610315974044,Level 2,Level 2,CT4020-HD2-GW-LTE,Reachable,AVAILABLE,NONE,Available,2,0,1,1,2025-11-19T10:22:39Z,0.0,2025-11-19T10:31:52.196106+00:00
NYC FLEET / DPRBUSHWINL#1#2,110 Kent Ave,Brooklyn,New York,11249,40.72090539125036,-73.96130623544315,Level 2,Level 2,CT4020-HD-GW,Reachable,AVAILABLE,NONE,Available,2,0,0,2,2025-11-19T10:27:37Z,0.0,2025-11-19T10:31:52.196106+00:00
NYC FLEET / DPRBXFORST#4A-B,1 Bronx River Pkwy,Bronx,New York,10462,40.847325202128175,-73.86970633240202,Level 2,Level 2,CT4020-HD-GW,Reachable,INUSE,NONE,Available,2,0,1,1,2025-11-19T10:26:46Z,0.0,2025-11-19T10:31:52.196106+00:00
NYC FLEET / DPR_ALOERTER4#5,131-40 Fowler Ave,Flushing,New York,11355,40.750897177126284,-73.83470767070844,Level 2,Level 2,CT4020-HD2-GW-LTE,Reachable,INUSE,NONE,Available,2,0,1,1,2025-11-19T10:25:02Z,0.0,2025-11-19T10:31:52.196106+00:00
NYC FLEET / NYPD44PCT-1,1264 River Ave,Concourse,New York,10452,40.83727529999999,-73.9197851,Level 2,Level 2,CT4020-HD-GW,Reachable,AVAILABLE,NONE,Available,2,0,1,1,2025-11-19T10:27:37Z,0.0,2025-11-19T10:31:52.196106+00:00
NYC FLEET / DSNY_Q02-1,58-1 52nd Rd,Woodside,New York,11377,40.734806,-73.90914,Level 2,Level 2,CPF50-L23,Reachable,AVAILABLE,NONE,Available,1,0,0,1,2025-11-19T10:25:39Z,0.0,2025-11-19T10:31:52.196106+00:00
NYC FLEET / DPRQBLIC#1&2,23-10 Queens Plaza S,Long Island City,New York,11101,40.7508089,-73.942049,Level 2,Level 2,CT4020-HD2-GW-LTE,Reachable,AVAILABLE,NONE,Available,2,0,0,2,2025-11-19T10:25:26Z,0.0,2025-11-19T10:31:52.196106+00:00
NYC FLEET / DSNY_Q05_DCFC1,48-01 58 Rd,Maspeth,New York,11378,40.720512,-73.922585,Level 3,Level 3,CPE250C-500-CCS1-CHD,Reachable,AVAILABLE,NONE,Available,1,0,0,1,2025-11-19T10:22:30Z,0.0,2025-11-19T10:31:52.196106+00:00
NYC FLEET / DSNY_Q05_DCFC2,48-01 58 Rd,Maspeth,New York,11378,40.720795,-73.92252,Level 3,Level 3,CPE250C-500-CCS1-CHD,Reachable,AVAILABLE,NONE,Available,1,0,0,1,2025-11-19T10:29:43Z,0.0,2025-11-19T10:31:52.196106+00:00
NYC FLEET / DSNY_BKLCU-1,110 E 131st St,New York,New York,10037,40.808315,-73.93595,Level 2,Level 2,CT4020-HD-GW,Reachable,INUSE,NONE,Available,2,0,1,1,2025-11-19T10:20:35Z,0.0,2025-11-19T10:31:52.196106+00:00
NYC FLEET / DSNY_SPRSTLOT-2,353 Spring Street,New York,New York,10014,40.72672111619798,-74.01003083729552,Level 2,Level 2,CT4020-HD,Reachable,AVAILABLE,NONE,Available,2,0,1,1,2025-11-19T10:29:30Z,0.0,2025-11-19T10:31:52.196106+00:00
NYC FLEET / DEP_LFRK_70+71,9605 Horace Harding Expy,Queens,New York,11368,40.73539050239983,-73.86358286059169,Level 2,Level 2,CT4020-HD2-GW-LTE,Reachable,INUSE,NONE,Charging,2,2,0,0,2025-11-19T10:21:11Z,0.0,2025-11-19T10:31:52.196106+00:00
NYC FLEET / DEP_LFRK_66+67,59-17 Junction Blvd,Flushing,New York,11373,40.73532140096798,-73.86374312258033,Level 2,Level 2,CT4020-HD-GW,Reachable,INUSE,NONE,Occupied,2,0,2,0,2025-11-19T10:27:12Z,0.0,2025-11-19T10:31:52.196106+00:00
NYC FLEET / DEP_LFRK_68+69,59-17 Junction Blvd,Flushing,New York,11373,40.73534324922263,-73.86368612563876,Level 2,Level 2,CT4020-HD-GW,Reachable,INUSE,NONE,Available,2,0,1,1,2025-11-19T10:24:44Z,0.0,2025-11-19T10:31:52.196106+00:00
NYC FLEET / DEP_LFRK_72+73,58-17 Junction Blvd,Queens,New York,11373,40.73537424324583,-73.86364388084678,Level 2,Level 2,CT4020-HD-GW,Reachable,INUSE,NONE,Charging,2,1,1,0,2025-11-19T10:28:14Z,0.0,2025-11-19T10:31:52.196106+00:00
NYC FLEET / DEP_26WARD# 1,12266 Flatlands Ave,Brooklyn,New York,11207,40.652416,-73.87907799999999,Level 2,Level 2,CT4020-HD-GW,Reachable,INUSE,NONE,Available,2,0,1,1,2025-11-19T10:26:45Z,0.0,2025-11-19T10:31:52.196106+00:00
NYC FLEET / DEP_LFRK_78+79,9605 Horace Harding Expy,Queens,New York,11368,40.73544436081906,-73.86340248203544,Level 2,Level 2,CT4020-HD-GW,Reachable,INUSE,NONE,Charging,2,1,1,0,2025-11-19T10:27:52Z,0.0,2025-11-19T10:31:52.196106+00:00
NYC FLEET / DEP_LFRK_76+77,9605 Horace Harding Expy,Queens,New York,11368,40.73542556118711,-73.86346350229053,Level 2,Level 2,CT4020-HD-GW,Reachable,AVAILABLE,NONE,Available,2,0,1,1,2025-11-19T10:21:34Z,0.0,2025-11-19T10:31:52.196106+00:00
NYC FLEET / DEP_26WARD# 2,12266 Flatlands Ave,New York,New York,11207,40.65242413970608,-73.8790243558197,Level 2,Level 2,CT4020-HD-GW,Reachable,INUSE,NONE,Available,2,0,1,1,2025-11-19T10:24:23Z,0.0,2025-11-19T10:31:52.196106+00:00
NYC FLEET / DEP_WT_HP_CONST,1260 Ryawa Ave,Bronx,New York,10474,40.811509218938056,-73.88043944232788,Level 2,Level 2,CT4020-HD2-GW-LTE,Unreachable,UNREACHABLE,NONE,Available,2,0,0,2,2025-11-03T18:53:01Z,0.0,2025-11-19T10:31:52.196106+00:00
NYC FLEET / DEP_WT_HP_ADMIN,1260 Ryawa Ave,Bronx,New York,10474,40.8115417,-73.8804609,Level 2,Level 2,CT4020-HD-GW,Reachable,AVAILABLE,NONE,Available,2,0,0,2,2025-11-19T10:19:56Z,0.0,2025-11-19T10:31:52.196106+00:00
NYC FLEET / DSNY_SPRSTLOT-1,353 Spring Street,New York,New York,10014,40.72668046300924,-74.0100630238037,Level 2,Level 2,CT4020-HD-GW,Reachable,INUSE,NONE,Available,2,0,1,1,2025-11-19T10:29:29Z,0.0,2025-11-19T10:31:52.196106+00:00
NYC FLEET / DOE_K0001,50 Bedford Ave,Brooklyn,New York,11222,40.7224451,-73.95322349999998,Level 2,Level 2,CT600-GW1-RFID,Unreachable,NEEDS SERVICE,Station Unreachable,Available,1,0,0,1,2022-02-27T08:00:04Z,0.0,2025-11-19T10:31:52.196106+00:00
NYC FLEET / DOE_ Q0002,165-65 84th Ave,Queens,New York,11432,40.71608906806641,-73.79887938465578,Level 2,Level 2,CT600-GW1-RFID,Unreachable,NEEDS SERVICE,Station Unreachable,Available,1,0,0,1,2018-12-04T17:15:20Z,0.0,2025-11-19T10:31:52.196106+00:00
NYC FLEET / DOE_ Q0001,165-65 84th Ave,Queens,New York,11432,40.7160972,-73.79892230000002,Level 2,Level 2,CT600-GW1-RFID,Unreachable,NEEDS SERVICE,Station Unreachable,Available,1,0,0,1,2022-03-02T03:03:21Z,0.0,2025-11-19T10:31:52.196106+00:00
NYC FLEET / DOE_ R0001,6581 Hylan Blvd,Staten Island,New York,10309,40.51030919999999,-74.21976840000002,Level 2,Level 2,CT600-GW1-RFID,Unreachable,NEEDS SERVICE,Station Unreachable,Available,1,0,0,1,2019-03-07T18:00:07Z,0.0,2025-11-19T10:31:52.196106+00:00
NYC FLEET / OEMHQCADMAN-10,165 Cadman Plaza E,Brooklyn,New York,11201,40.69919188305912,-73.98932072331354,Level 2,Level 2,CT600-GW1-RFID,Unreachable,NEEDS SERVICE,Station Unreachable,Available,1,0,0,1,2022-03-02T05:40:23Z,0.0,2025-11-19T10:31:52.196106+00:00
NYC FLEET / DOH_56 DRIVE,5617 56th Dr,queens,New York,11378,40.7245459,-73.91366719999996,Level 2,Level 2,CT600-GW1-RFID,Unreachable,NEEDS SERVICE,Station Unreachable,Available,1,0,0,1,2022-03-02T03:35:39Z,0.0,2025-11-19T10:31:52.196106+00:00
NYC FLEET / DSNY_MN10-1,1921 Park Ave,New York,New York,10037,40.808422,-73.93609,Level 2,Level 2,CT4020-HD-GW,Reachable,AVAILABLE,NONE,Available,2,0,1,1,2025-11-19T10:27:00Z,0.0,2025-11-19T10:31:52.196106+00:00
NYC FLEET / DSNY_BX06-2,784 E 176th St,West Bronx,New York,10460,40.84167,-73.889854,Level 2,Level 2,CT4020-HD-GW,Reachable,AVAILABLE,NONE,Available,2,0,0,2,2025-11-19T10:23:47Z,0.0,2025-11-19T10:31:52.196106+00:00
NYC FLEET / FDNY9METROTECH8,9 MetroTech Center,Brooklyn,New York,11201,40.69444,-73.98436,Level 2,Level 2,CT4020-HD-GW,Reachable,AVAILABLE,NONE,Available,2,0,0,2,2025-11-19T10:24:10Z,0.0,2025-11-19T10:31:52.196106+00:00
NYC FLEET / DSNY_BX06A-1,800 E 176th St,bronx,New York,10460,40.841534,-73.89004,Level 2,Level 2,CPF50-L23,Reachable,AVAILABLE,NONE,Available,1,0,0,1,2025-11-19T10:19:59Z,0.0,2025-11-19T10:31:52.196106+00:00
NYC FLEET / DSNY_BX06A-2,800 E 176th St,bronx,New York,10460,40.8415390728697,-73.89005206994057,Level 2,Level 2,CPF50-L23,Reachable,AVAILABLE,NONE,Available,1,0,0,1,2025-11-19T10:19:59Z,0.0,2025-11-19T10:31:52.196106+00:00
NYC FLEET / DSNY_Q13J-1,144-35 153rd Ln,Jamaica,New York,11434,40.66509,-73.7847,Level 2,Level 2,CT4020-HD-GW,Reachable,AVAILABLE,NONE,Available,2,0,0,2,2025-11-19T10:27:13Z,0.0,2025-11-19T10:31:52.196106+00:00
NYC FLEET / DSNY_Q14_DCFC1,51-10 Almeda Ave,Far Rockaway,New York,11691,40.60113,-73.781136,Level 3,Level 3,CPE250C-500-CCS1-CHD,Reachable,AVAILABLE,NONE,Available,1,0,0,1,2025-11-19T10:22:50Z,0.0,2025-11-19T10:31:52.196106+00:00
NYC FLEET / DSNY_MN07-3,786 12th Ave,New York,New York,10019,40.770126,-73.99357,Level 2,Level 2,CPF50-L23,Reachable,INUSE,NONE,Occupied,1,0,1,0,2025-11-19T10:25:36Z,0.0,2025-11-19T10:31:52.196106+00:00
NYC FLEET / DSNY_MN07-4,786 12th Ave,New York,New York,10019,40.77012295300118,-73.99355793005944,Level 2,Level 2,CPF50-L23,Reachable,AVAILABLE,NONE,Available,1,0,0,1,2025-11-19T10:25:36Z,0.0,2025-11-19T10:31:52.196106+00:00
NYC FLEET / DSNY_MN07-5,786 12th Ave,New York,New York,10019,40.770134125329506,-73.9935860932541,Level 2,Level 2,CPF50-L23,Reachable,INUSE,NONE,Occupied,1,0,1,0,2025-11-19T10:25:36Z,0.0,2025-11-19T10:31:52.196106+00:00
NYC FLEET / DSNY_Q14-1,51-10 Almeda Ave,Queens,New York,11691,40.60071,-73.78116,Level 2,Level 2,CPF50-L23,Reachable,AVAILABLE,NONE,Available,1,0,0,1,2025-11-19T10:27:47Z,0.0,2025-11-19T10:31:52.196106+00:00
NYC FLEET / DSNY_MN12_DCFC1,301 W 215 St,New York,New York,10034,40.869087,-73.912476,Level 3,Level 3,CPE250C-500-CCS1-CHD,Reachable,INUSE,NONE,Charging,1,1,0,0,2025-11-19T10:22:20Z,0.0,2025-11-19T10:31:52.196106+00:00
NYC FLEET / DSNY_MN12_DCFC2,301 W 215 St,New York,New York,10034,40.869244,-73.91243,Level 3,Level 3,CPE250C-500-CCS1-CHD,Reachable,AVAILABLE,NONE,Available,1,0,0,1,2025-11-19T10:26:08Z,0.0,2025-11-19T10:31:52.196106+00:00
NYC FLEET / DSNY_Q04-2,52-35 58th street,Woodside,New York,11377,40.734383,-73.90945,Level 2,Level 2,CPF50-L23,Reachable,INUSE,NONE,Occupied,1,0,1,0,2025-11-19T10:24:53Z,0.0,2025-11-19T10:31:52.196106+00:00
NYC FLEET / DSNY_SI2_DCFC1,2538 Richmond Ave,New Springville,New York,10314,40.586647,-74.16917,Level 3,Level 3,CPE250C-500-CCS1-CHD,Reachable,AVAILABLE,NONE,Available,1,0,0,1,2025-11-19T10:26:47Z,0.0,2025-11-19T10:31:52.196106+00:00
NYC FLEET / DSNY_SI2_DCFC2,2538 Richmond Ave,New Springville,New York,10314,40.58649,-74.16942,Level 3,Level 3,CPE250C-500-CCS1-CHD,Reachable,AVAILABLE,NONE,Available,1,0,0,1,2025-11-19T10:27:16Z,0.0,2025-11-19T10:31:52.196106+00:00
NYC FLEET / DSNY_BK09-1,690 New York Ave,Prospect Lefferts Gardens,New York,11203,40.656826,-73.947685,Level 2,Level 2,CT4020-HD-GW,Reachable,AVAILABLE,NONE,Available,2,0,0,2,2025-11-19T10:23:17Z,0.0,2025-11-19T10:31:52.196106+00:00
NYC FLEET / DSNY_QBSROOF-2,52-07 58th St,Flushing,New York,11377,40.735058,-73.90935,Level 2,Level 2,CT4020-HD-GW,Reachable,INUSE,NONE,Charging,2,1,1,0,2025-11-19T10:27:46Z,0.0,2025-11-19T10:31:52.196106+00:00
NYC FLEET / DOT_SIFERRYTERM,10 Richmond Terrace,Mid Island,New York,10301,40.64243,-74.076126,Level 2,Level 2,CT4020-HD-GW,Reachable,AVAILABLE,NONE,Available,2,0,0,2,2025-11-19T10:27:59Z,0.0,2025-11-19T10:31:52.196106+00:00
NYC FLEET / DPR_ALLIED2,15 East Rd,Corona,New York,11368,40.753628,-73.838295,Level 2,Level 2,CT4020-HD-GW,Reachable,INUSE,NONE,Occupied,2,0,2,0,2025-11-19T10:28:07Z,0.0,2025-11-19T10:31:52.196106+00:00
NYC FLEET / DPR_ALLIED1,15 East Rd,Corona,New York,11368,40.753754,-73.8384,Level 2,Level 2,CT4020-HD-GW,Reachable,AVAILABLE,NONE,Available,2,0,1,1,2025-11-19T10:26:56Z,0.0,2025-11-19T10:31:52.196106+00:00
NYC FLEET / DPR_CROTONAPL#1,1700 Fulton Ave,Morrisania,New York,10457,40.83933,-73.897766,Level 2,Level 2,CT4020-HD-GW,Unreachable,UNREACHABLE,NONE,Available,2,0,0,2,2024-12-13T11:20:15Z,0.0,2025-11-19T10:31:52.196106+00:00
NYC FLEET / DPR_FTTOTTEN422,421 Sylvester Ln,Fort Totten,New York,11359,40.793144,-73.77701,Level 2,Level 2,CT4020-HD-GW,Unreachable,UNREACHABLE,NONE,Available,2,0,0,2,2025-09-07T07:36:38Z,0.0,2025-11-19T10:31:52.196106+00:00
NYC FLEET / DPRHIGHROCK#1,200 Nevada Ave,Staten Island,New York,10306,40.5846918,-74.125014,Level 2,Level 2,CT4010-HD-GW,Reachable,AVAILABLE,NONE,Available,1,0,0,1,2025-11-19T10:27:15Z,0.0,2025-11-19T10:31:52.196106+00:00
NYC FLEET / DPR_ALOERTER#1,131-40 Fowler Ave,Flushing,New York,11355,40.750988,-73.83403,Level 2,Level 2,CT4020-HD-GW,Reachable,AVAILABLE,NONE,Available,2,0,1,1,2025-11-19T10:20:28Z,0.0,2025-11-19T10:31:52.196106+00:00
NYC FLEET / DPR_IROQUOIS-1,3 Iroquois St,Staten Island,New York,10305,40.574238,-74.08462,Level 2,Level 2,CT4010-HD-GW,Reachable,INUSE,NONE,Charging,1,1,0,0,2025-11-19T10:23:25Z,0.0,2025-11-19T10:31:52.196106+00:00
NYC FLEET / DPR_ALOERTER#2,131-40 Fowler Ave,Flushing,New York,11355,40.750984,-73.834114,Level 2,Level 2,CT4020-HD-GW,Reachable,AVAILABLE,NONE,Available,2,0,1,1,2025-11-19T10:28:29Z,0.0,2025-11-19T10:31:52.196106+00:00
NYC FLEET / DOT_SPARE-4,42 South St,New York,New York,10005,40.7035418,-74.0076801,Level 2,Level 2,CPF50,Unreachable,UNREACHABLE,NONE,Available,1,0,0,1,2025-10-17T08:56:38Z,0.0,2025-11-19T10:31:52.196106+00:00
NYC FLEET / DPRSOUTHBEACH#1,375 Sand Ln,Arrochar,New York,10305,40.5908102,-74.0667761,Level 2,Level 2,CT4020-HD-GW,Reachable,AVAILABLE,NONE,Available,2,0,0,2,2025-11-19T10:28:24Z,0.0,2025-11-19T10:31:52.196106+00:00
NYC FLEET / DPROLMSTEDFOR#3,12 Olmsted Dr,Corona,New York,11368,40.751663,-73.84782,Level 2,Level 2,CT4010-HD-GW,Reachable,AVAILABLE,NONE,Available,1,0,0,1,2025-11-19T10:24:25Z,0.0,2025-11-19T10:31:52.196106+00:00
NYC FLEET / DSNY_QBSROOF-4,52-35 58th street,Woodside,New York,11377,40.73446,-73.90962,Level 2,Level 2,CPF50-L23,Reachable,AVAILABLE,NONE,Available,1,0,0,1,2025-11-19T10:25:56Z,0.0,2025-11-19T10:31:52.196106+00:00
NYC FLEET / DPRICAHNSTADIUM,20 Randalls Is Rd,New York,New York,10035,40.79244,-73.924995,Level 2,Level 2,CT4020-HD-GW,Reachable,AVAILABLE,NONE,Available,2,0,0,2,2025-11-19T10:28:26Z,0.0,2025-11-19T10:31:52.196106+00:00
NYC FLEET / DPR_CHELSEAPARK,294 10th Ave,New York,New York,10001,40.749844,-74.00089,Level 2,Level 2,CT4020-HD-GW,Reachable,INUSE,NONE,Available,2,0,1,1,2025-11-19T10:27:52Z,0.0,2025-11-19T10:31:52.196106+00:00
NYC FLEET / DPR_RANAQ2,1954-1962 Birchall Ave,New York,New York,10462,40.847313,-73.869644,Level 2,Level 2,CT4020-HD-GW,Reachable,AVAILABLE,NONE,Available,2,0,0,2,2025-11-19T10:21:49Z,0.0,2025-11-19T10:31:52.196106+00:00
NYC FLEET / DPR_RANAQ1,1954-1962 Birchall Ave,New York,New York,10462,40.847336,-73.86972,Level 2,Level 2,CT4020-HD-GW,Reachable,INUSE,NONE,Available,2,0,1,1,2025-11-19T10:22:17Z,0.0,2025-11-19T10:31:52.196106+00:00
NYC FLEET / DPRRANAQUA#4,1 Bronx River Pkwy,Bronx,New York,10462,40.846848,-73.87063,Level 2,Level 2,CT4020-HD-GW,Reachable,INUSE,NONE,Occupied,2,0,2,0,2025-11-19T10:23:42Z,0.0,2025-11-19T10:31:52.196106+00:00
NYC FLEET / DPRPRKOFAMER#1,103-68 41st Ave,Corona,New York,11368,40.74904,-73.86187,Level 2,Level 2,CT4020-HD-GW,Reachable,AVAILABLE,NONE,Available,2,0,0,2,2025-11-19T10:25:59Z,0.0,2025-11-19T10:31:52.196106+00:00
NYC FLEET / DSNY_MN10-5-ENF,110 E 131st St,New York,New York,10037,40.808437,-73.93585,Level 2,Level 2,CT4020-HD-GW,Reachable,AVAILABLE,NONE,Available,2,0,1,1,2025-11-19T10:24:47Z,0.0,2025-11-19T10:31:52.196106+00:00
NYC FLEET / DSNY_MN10-4-ENF,110 E 130th St,New York,New York,10037,40.808212,-73.93622,Level 2,Level 2,CT4020-HD-GW,Reachable,AVAILABLE,NONE,Available,2,0,0,2,2025-11-19T10:21:55Z,0.0,2025-11-19T10:31:52.196106+00:00
NYC FLEET / DCASNAVYYARD01,2 Navy St,Downtown Brooklyn,New York,11201,40.7000095,-73.98076499999999,Level 2,Level 2,CPF25,Reachable,INUSE,NONE,Charging,1,1,0,0,2025-11-19T10:28:32Z,0.0,2025-11-19T10:31:52.196106+00:00
NYC FLEET / NYPD_COLLPTTOW2,31-22 College Point Blvd,Flushing,New York,11354,40.76832,-73.84295,Level 2,Level 2,CT4010-HD-GW,Reachable,AVAILABLE,NONE,Available,1,0,0,1,2025-11-19T10:26:00Z,0.0,2025-11-19T10:31:52.196106+00:00
NYC FLEET / NYPD_COLLPTTOW1,31-40 College Point Blvd,Flushing,New York,11354,40.76768,-73.8422,Level 2,Level 2,CT4010-HD-GW,Reachable,AVAILABLE,NONE,Available,1,0,0,1,2025-11-19T10:28:26Z,0.0,2025-11-19T10:31:52.196106+00:00
NYC FLEET / NYPD_COLLPTTOW3,31-22 College Point Blvd,Flushing,New York,11354,40.768303,-73.84255,Level 2,Level 2,CT4010-HD-GW,Reachable,AVAILABLE,NONE,Available,1,0,0,1,2025-11-19T10:25:39Z,0.0,2025-11-19T10:31:52.196106+00:00
NYC FLEET / NYPD_COLLPTTOW4,31-22 College Point Blvd,Flushing,New York,11354,40.76826237222307,-73.84253927116394,Level 2,Level 2,CT4010-HD-GW,Reachable,AVAILABLE,NONE,Available,1,0,0,1,2025-11-19T10:26:42Z,0.0,2025-11-19T10:31:52.196106+00:00
NYC FLEET / DOE_M466,549 Audubon Ave,New York,New York,10040,40.856983,-73.9266,Level 2,Level 2,CPF50-L23,Reachable,INUSE,NONE,Occupied,1,0,1,0,2025-11-19T10:21:24Z,0.0,2025-11-19T10:31:52.196106+00:00
NYC FLEET / DOT_SPARE-1,32 Old Slip,New York,New York,10005,40.70346313294443,-74.00766796011888,Level 2,Level 2,CPF25,Unreachable,UNREACHABLE,NONE,Available,1,0,0,1,2025-10-17T12:36:37Z,0.0,2025-11-19T10:31:52.196106+00:00
NYC FLEET / DOT_SPARE-2,32 Old Slip,New York,New York,10005,40.703481433263185,-74.00764113802873,Level 2,Level 2,CPF25,Unreachable,UNREACHABLE,NONE,Available,1,0,0,1,2025-10-17T12:36:37Z,0.0,2025-11-19T10:31:52.196106+00:00
NYC FLEET / DOT_SPARE-3,42 South St,New York,New York,10005,40.70349160010477,-74.00761431593858,Level 2,Level 2,CPF25,Unreachable,UNREACHABLE,NONE,Available,1,0,0,1,2025-10-17T12:36:37Z,0.0,2025-11-19T10:31:52.196106+00:00
NYC FLEET / DOTMASPETHQNS-1,58-50 57th Rd,Maspeth,New York,11378,40.72169693437562,-73.90985745767212,Level 2,Level 2,CPF50-L23,Reachable,AVAILABLE,NONE,Available,1,0,0,1,2025-11-19T10:26:19Z,0.0,2025-11-19T10:31:52.196106+00:00
NYC FLEET / DOTMASPETHQNS-2,58-50 57th R,Maspeth,New York,11378,40.721705065624164,-73.90988427976227,Level 2,Level 2,CPF50,Unreachable,UNREACHABLE,NONE,Available,1,0,0,1,2025-07-26T10:03:13Z,0.0,2025-11-19T10:31:52.196106+00:00
NYC FLEET / DEPJAMAICA_4_L3,150-20 134th Street,Queens,New York,11420,40.66250901845293,-73.81074779762267,Level 3,Level 3,CPE250C-500-CCS1-CHD,Reachable,AVAILABLE,NONE,Available,1,0,0,1,2025-11-19T10:23:21Z,0.0,2025-11-19T10:31:52.196106+00:00
NYC FLEET / DOT_FTTOTTEN,423 Abbott Rd,Bayside,New York,11359,40.79240584674457,-73.7767748687172,Level 2,Level 2,CT4020-HD-GW,Reachable,AVAILABLE,NONE,Available,2,0,0,2,2025-11-19T10:28:29Z,0.0,2025-11-19T10:31:52.196106+00:00
NYC FLEET / OCME_26ST_S1_L3,421 E 26th St,New York,New York,10016,40.738342,-73.97531,Level 3,Level 3,CPE250C-500-CCS1-CHD,Reachable,AVAILABLE,NONE,Available,1,0,0,1,2025-11-19T10:21:13Z,0.0,2025-11-19T10:31:52.196106+00:00
NYC FLEET / DPR_ICAHN1,Rivers Edge Rd,New York,New York,10035,40.78901,-73.9271,Level 2,Level 2,CT4020-HD2-GW-LTE,Reachable,AVAILABLE,NONE,Available,2,0,1,1,2025-11-19T10:24:27Z,0.0,2025-11-19T10:31:52.196106+00:00
NYC FLEET / DPR_ICAHN3,Rivers Edge Rd,New York,New York,10035,40.789112,-73.92714,Level 2,Level 2,CT4020-HD-GW,Reachable,AVAILABLE,NONE,Available,2,0,0,2,2025-11-19T10:23:41Z,0.0,2025-11-19T10:31:52.196106+00:00
NYC FLEET / NYPDHQ_1PP_7_L3,1 Police Plaza,New York,New York,10007,40.712242,-74.00129,Level 3,Level 3,CPE250C-500-CCS1-CHD,Reachable,AVAILABLE,NONE,Available,1,0,0,1,2025-11-19T10:24:27Z,0.0,2025-11-19T10:31:52.196106+00:00
NYC FLEET / NYPDHQ_1PP_8_L3,1 Police Plaza,New York,New York,10038,40.711887,-74.00149,Level 3,Level 3,CPE250C-500-CCS1-CHD,Reachable,AVAILABLE,NONE,Available,1,0,0,1,2025-11-19T10:24:51Z,0.0,2025-11-19T10:31:52.196106+00:00
NYC FLEET / NYPDHQ_1PP_9_L3,1 Police Plaza,New York,New York,10038,40.712097,-74.00173,Level 3,Level 3,CPE250C-500-CCS1-CHD,Unreachable,UNREACHABLE,NONE,Available,1,0,0,1,2024-12-12T23:24:37Z,0.0,2025-11-19T10:31:52.196106+00:00
NYC FLEET / DSNY_CBS-2,10601 Ave D,Canarsie,New York,11236,40.654064,-73.9015,Level 2,Level 2,CT4020-HD-GW,Reachable,AVAILABLE,NONE,Available,2,0,0,2,2025-11-19T10:29:35Z,0.0,2025-11-19T10:31:52.196106+00:00
NYC FLEET / DOC_SLRCANOPY1,11-15 Hazen St,East Elmhurst,New York,11370,40.78889,-73.88416,Level 2,Level 2 - Solar,CPF50-L18,Reachable,AVAILABLE,NONE,Available,1,0,0,1,2025-11-19T10:25:51Z,0.0,2025-11-19T10:31:52.196106+00:00
NYC FLEET / DOC_SLRCANOPY2,11-15 Hazen St,East Elmhurst,New York,11370,40.78899,-73.88419,Level 2,Level 2 - Solar,CPF50-L18,Reachable,AVAILABLE,NONE,Available,1,0,0,1,2025-11-19T10:25:51Z,0.0,2025-11-19T10:31:52.196106+00:00
NYC FLEET / DOC_SLRCANOPY3,11-15 Hazen St,East Elmhurst,New York,11370,40.789085,-73.88415,Level 2,Level 2 - Solar,CPF50-L18,Reachable,AVAILABLE,NONE,Available,1,0,0,1,2025-11-19T10:25:51Z,0.0,2025-11-19T10:31:52.196106+00:00
NYC FLEET / DOC_SLRCANOPY4,11-15 Hazen St,East Elmhurst,New York,11370,40.78915,-73.884155,Level 2,Level 2 - Solar,CPF50-L18,Reachable,AVAILABLE,NONE,Available,1,0,0,1,2025-11-19T10:25:51Z,0.0,2025-11-19T10:31:52.196106+00:00
NYC FLEET / DOC_SLRCANOPY5,11-15 Hazen St,East Elmhurst,New York,11370,40.78897,-73.88417,Level 2,Level 2 - Solar,CPF50,Reachable,AVAILABLE,NONE,Available,1,0,0,1,2025-11-19T10:25:51Z,0.0,2025-11-19T10:31:52.196106+00:00
NYC FLEET / DOC_SLRCANOPY6,11-15 Hazen St,East Elmhurst,New York,11370,40.78902,-73.88414,Level 2,Level 2 - Solar,CPF50-L18,Reachable,AVAILABLE,NONE,Available,1,0,0,1,2025-11-19T10:25:51Z,0.0,2025-11-19T10:31:52.196106+00:00
NYC FLEET / DSNY_BK15A-1,5235 58th street,Queens,New York,11377,40.591743,-73.932106,Level 2,Level 2,CT4020-HD-GW,Reachable,AVAILABLE,NONE,Available,2,0,1,1,2025-11-19T10:28:03Z,0.0,2025-11-19T10:31:52.196106+00:00
NYC FLEET / DPR_ALLIED5,15 East Rd,Corona,New York,11368,40.75368512734058,-73.83842437301637,Level 2,Level 2,CT4020-HD-GW,Reachable,INUSE,NONE,Occupied,2,0,2,0,2025-11-19T10:29:21Z,0.0,2025-11-19T10:31:52.196106+00:00
NYC FLEET / DSNY_Q03-1,52-35 58th St,Woodside,New York,11377,40.734325,-73.90785,Level 2,Level 2,CT4020-HD-GW,Reachable,INUSE,NONE,Available,2,0,0,2,2025-11-19T10:23:12Z,0.0,2025-11-19T10:31:52.196106+00:00
NYC FLEET / DPR_QBSTWTRAIL1,1001 Queens Plaza S,LIC,New York,11101,40.753742,-73.94757,Level 2,Level 2,CT4020-HD-GW,Unreachable,UNREACHABLE,NONE,Available,2,0,1,1,2025-11-17T19:01:01Z,0.0,2025-11-19T10:31:52.196106+00:00
NYC FLEET / DPR_SUNSETPARK1,4119 7th Ave,Brooklyn,New York,11232,40.64733605180922,-74.00127487106323,Level 2,Level 2,CPF50-L18,Reachable,AVAILABLE,NONE,Available,1,0,0,1,2025-11-19T10:23:35Z,0.0,2025-11-19T10:31:52.196106+00:00
NYC FLEET / DPR_QBLIC#9&10,1001 Queens Plaza S,LIC,New York,11101,40.753746,-73.94773,Level 2,Level 2,CT4020-HD-GW,Reachable,INUSE,NONE,Occupied,2,0,2,0,2025-11-19T10:27:39Z,0.0,2025-11-19T10:31:52.196106+00:00
NYC FLEET / DPR_QBLIC_7&8,1001 Queens Plaza S,LIC,New York,11101,40.753693,-73.94753,Level 2,Level 2,CT4020-HD-GW,Reachable,INUSE,NONE,Available,2,0,1,1,2025-11-19T10:21:55Z,0.0,2025-11-19T10:31:52.196106+00:00
NYC FLEET / DPR_QBLIC_5&6,1001 Queens Plaza S,LIC,New York,11101,40.75366,-73.94742,Level 2,Level 2,CT4020-HD2-GW-LTE,Reachable,INUSE,NONE,Charging,2,1,1,0,2025-11-19T10:27:36Z,0.0,2025-11-19T10:31:52.196106+00:00
NYC FLEET / DPR_ARSENAL18,East Dr,New York,New York,10019,40.76784,-73.97313,Level 2,Level 2,CPF50-L18,Unreachable,NEEDS SERVICE,Station Unreachable,Available,1,0,0,1,2024-08-11T20:05:19Z,0.0,2025-11-19T10:31:52.196106+00:00
NYC FLEET / DPR_ARSENAL17,East Dr,New York,New York,10019,40.767838,-73.97314,Level 2,Level 2,CPF50,Reachable,INUSE,NONE,Occupied,1,0,1,0,2025-11-19T10:27:40Z,0.0,2025-11-19T10:31:52.196106+00:00
NYC FLEET / DPR_ROYWILKINS1,177-01 Baisley Blvd,Jamaica,New York,11434,40.687523,-73.76966,Level 2,Level 2,CT4020-HD-GW,Reachable,AVAILABLE,NONE,Available,2,0,0,2,2025-11-19T10:29:18Z,0.0,2025-11-19T10:31:52.196106+00:00
NYC FLEET / DOT_VERNONYRD-1,4200 Vernon Blvd,LIC,New York,11101,40.75464,-73.94913,Level 2,Level 2,CT4020-HD-GW,Reachable,AVAILABLE,NONE,Available,2,0,0,2,2025-11-19T10:21:19Z,0.0,2025-11-19T10:31:52.196106+00:00
NYC FLEET / DPR_ROYWILKINS2,177-01 Baisley Blvd,Jamaica,New York,11434,40.687473,-73.76973,Level 2,Level 2,CT4020-HD-GW,Reachable,AVAILABLE,NONE,Available,2,0,0,2,2025-11-19T10:23:53Z,0.0,2025-11-19T10:31:52.196106+00:00
NYC FLEET / DPR_RIHORT#1,111 Sunken Garden Loop,New York,New York,10035,40.786507,-73.9297,Level 2,Level 2,CPF50-L23,Reachable,INUSE,NONE,Occupied,1,0,1,0,2025-11-19T10:28:29Z,0.0,2025-11-19T10:31:52.196106+00:00
NYC FLEET / DPR_RIHORT#2,111 Sunken Garden Loop,New York,New York,10035,40.78662,-73.92977,Level 2,Level 2,CPF50-L23,Reachable,INUSE,NONE,Occupied,1,0,1,0,2025-11-19T10:28:29Z,0.0,2025-11-19T10:31:52.196106+00:00
NYC FLEET / DPR_RIHORT#3,111 Sunken Garden Loop,New York,New York,10035,40.786533,-73.929726,Level 2,Level 2,CPF50-L23,Reachable,AVAILABLE,NONE,Available,1,0,0,1,2025-11-19T10:28:29Z,0.0,2025-11-19T10:31:52.196106+00:00
NYC FLEET / DPR_RIOPS#1,111 Sunken Garden Loop,New York,New York,10035,40.78647,-73.93006,Level 2,Level 2,CPF50,Reachable,AVAILABLE,NONE,Available,1,0,0,1,2025-11-19T10:28:05Z,0.0,2025-11-19T10:31:52.196106+00:00
NYC FLEET / DPR_RICWTURF#1,111 Sunken Garden Loop,New York,New York,10035,40.78703,-73.930084,Level 2,Level 2,CPF50-L23,Reachable,AVAILABLE,NONE,Available,1,0,0,1,2025-11-19T10:28:05Z,0.0,2025-11-19T10:31:52.196106+00:00
NYC FLEET / DPR_DRYHARBOR#1,80-11 Myrtle Avenue,Glendale,New York,11385,40.702248,-73.8682,Level 2,Level 2,CT4020-HD-GW,Reachable,INUSE,NONE,Available,2,0,1,1,2025-11-19T10:29:12Z,0.0,2025-11-19T10:31:52.196106+00:00
NYC FLEET / DPR_DRYHARBOR#2,80-11 myrtle avenue,Glendale,New York,11385,40.702293,-73.86818,Level 2,Level 2,CT4020-HD-GW,Reachable,INUSE,NONE,Available,2,0,1,1,2025-11-19T10:22:27Z,0.0,2025-11-19T10:31:52.196106+00:00
NYC FLEET / DSNY_Q06-1,2720 53rd Ave,Woodside,New York,11377,40.733597,-73.908005,Level 2,Level 2,CT4020-HD-GW,Reachable,AVAILABLE,NONE,Available,2,0,0,2,2025-11-19T10:28:10Z,0.0,2025-11-19T10:31:52.196106+00:00
NYC FLEET / DSNY_BX04-1,525 Johnson Ave,East Williamsburg,New York,11237,40.709274,-73.92608,Level 2,Level 2,CT4020-HD-GW,Reachable,AVAILABLE,NONE,Available,2,0,0,2,2025-11-19T10:28:05Z,0.0,2025-11-19T10:31:52.196106+00:00
NYC FLEET / DSNY_BK03-1,525 Johnson Ave,New York,New York,11237,40.709332068970426,-73.92648483254088,Level 2,Level 2,CT4020-HD-GW,Reachable,INUSE,NONE,Charging,2,1,1,0,2025-11-19T10:20:23Z,0.0,2025-11-19T10:31:52.196106+00:00
NYC FLEET / DSNY_MN09-1,125 E 149th St,West Bronx,New York,10451,40.819317,-73.928795,Level 2,Level 2,CT4020-HD-GW,Reachable,AVAILABLE,NONE,Available,2,0,0,2,2025-11-19T10:28:10Z,0.0,2025-11-19T10:31:52.196106+00:00
NYC FLEET / DSNY_BK06-2,127 2nd Ave,Gowanus,New York,11215,40.670868,-73.99453,Level 2,Level 2,CT4020-HD-GW,Reachable,AVAILABLE,NONE,Available,2,0,0,2,2025-11-19T10:22:29Z,0.0,2025-11-19T10:31:52.196106+00:00
NYC FLEET / DSNY_BX05-2,1310 Cromwell Ave,Mount Eden,New York,10452,40.839176,-73.9205,Level 2,Level 2,CT4020-HD-GW,Reachable,AVAILABLE,NONE,Available,2,0,0,2,2025-11-19T10:20:38Z,0.0,2025-11-19T10:31:52.196106+00:00
NYC FLEET / DPR_RUFUSKING#1,150-03 Jamaica Ave,Jamaica,New York,11432,40.703358,-73.80325,Level 2,Level 2,CPF50-L18,Reachable,AVAILABLE,NONE,Available,1,0,0,1,2025-11-19T10:28:26Z,0.0,2025-11-19T10:31:52.196106+00:00
NYC FLEET / DSNY_MN08-1,4036 9th Ave,New York,New York,10034,40.86931,-73.91326,Level 2,Level 2,CT4020-HD-GW,Reachable,AVAILABLE,NONE,Available,2,0,1,1,2025-11-19T10:25:46Z,0.0,2025-11-19T10:31:52.196106+00:00
NYC FLEET / DSNY_RBS-2,1000 W. Service RD,Staten Island,New York,10314,40.56813950449021,-74.19384840978698,Level 2,Level 2,CT4020-HD-GW,Reachable,INUSE,NONE,Available,2,0,1,1,2025-11-19T10:23:07Z,0.0,2025-11-19T10:31:52.196106+00:00
NYC FLEET / DEP_LFRK_74+75,9605 Horace Harding Expy,Queens,New York,11368,40.73540949393704,-73.86352706365014,Level 2,Level 2,CT4020-HD2-GW-LTE,Reachable,INUSE,NONE,Occupied,2,0,2,0,2025-11-19T10:23:03Z,0.0,2025-11-19T10:31:52.196106+00:00
NYC FLEET / DSNY_BK12-S1,5602 19th Ave,Mapleton,New York,11204,40.6232032,-73.9830948,Level 2,Level 2 - Solar,CT4010-HD-GW,Reachable,AVAILABLE,NONE,Available,1,0,0,1,2025-11-19T10:26:01Z,0.0,2025-11-19T10:31:52.196106+00:00
NYC FLEET / DOC_HAZEN16,29 Hazen St,New York,New York,11370,40.79685,-73.8886,Level 2,Level 2,CT4020-HD-GW,Reachable,AVAILABLE,NONE,Available,2,0,0,2,2025-11-19T10:20:29Z,0.0,2025-11-19T10:31:52.196106+00:00
NYC FLEET / DSNY_BK12-S2,5602 19th Ave,Mapleton,New York,11204,40.62310731651836,-73.98292102083205,Level 2,Level 2 - Solar,CT4010-HD-GW,Unreachable,UNREACHABLE,NONE,Available,1,0,0,1,2025-06-20T00:06:47Z,0.0,2025-11-19T10:31:52.196106+00:00
NYC FLEET / DCAS_QBH_1_L3,Union Tpke/Queens Blvd,Jamaica,New York,11415,40.714226,-73.82843,Level 3,Level 3,CPE250C-500-CCS1-CHD,Reachable,AVAILABLE,NONE,Available,1,0,0,1,2025-11-19T10:24:48Z,0.0,2025-11-19T10:31:52.196106+00:00
NYC FLEET / DCAS_QBH_2_L3,Union Tpke/Queens Blvd,Jamaica,New York,11415,40.71425,-73.82845,Level 3,Level 3,CPE250C-500-CCS1-CHD,Reachable,AVAILABLE,NONE,Available,1,0,0,1,2025-11-19T10:29:50Z,0.0,2025-11-19T10:31:52.196106+00:00
NYC FLEET / DCAS_QBH_3_L3,Union Tpke/Queens Blvd,Jamaica,New York,11415,40.714283,-73.828514,Level 3,Level 3,CPE250C-500-CCS1-CHD,Reachable,AVAILABLE,NONE,Available,1,0,0,1,2025-11-19T10:22:59Z,0.0,2025-11-19T10:31:52.196106+00:00
NYC FLEET / DSNY_MN11-1,217 E 127th St,New York,New York,10035,40.804783,-73.93371,Level 2,Level 2,CT4020-HD-GW,Reachable,AVAILABLE,NONE,Available,2,0,0,2,2025-11-19T10:19:55Z,0.0,2025-11-19T10:31:52.196106+00:00
NYC FLEET / DSNY_MN11-2,217 E 127th St,New York,New York,10035,40.80474,-73.933685,Level 2,Level 2,CT4020-HD-GW,Reachable,AVAILABLE,NONE,Available,2,0,1,1,2025-11-19T10:28:57Z,0.0,2025-11-19T10:31:52.196106+00:00
NYC FLEET / DSNY_BX07-1,423 W 215th St,New York,New York,10034,40.86957,-73.9144,Level 2,Level 2,CT4020-HD-GW,Reachable,INUSE,NONE,Charging,2,1,1,0,2025-11-19T10:22:59Z,0.0,2025-11-19T10:31:52.196106+00:00
NYC FLEET / DPRSOUNDVIEW_#1,1550 Lafayette Ave,Clason Point,New York,10473,40.81904,-73.87852,Level 2,Level 2,CPF50-L18,Reachable,AVAILABLE,NONE,Available,1,0,0,1,2025-11-19T10:25:55Z,0.0,2025-11-19T10:31:52.196106+00:00
NYC FLEET / DSNY_MN11-3,217 E 127th St,New York,New York,10035,40.804707,-73.93367,Level 2,Level 2,CT4020-HD-GW,Reachable,AVAILABLE,NONE,Available,2,0,0,2,2025-11-19T10:23:06Z,0.0,2025-11-19T10:31:52.196106+00:00
NYC FLEET / DOC_VTF_1,15 West 5th Street,New York,New York,11370,40.78912,-73.88875,Level 2,Level 2,CT4020-HD-GW,Unreachable,UNREACHABLE,NONE,Available,2,0,0,2,2025-11-17T13:23:06Z,0.0,2025-11-19T10:31:52.196106+00:00
NYC FLEET / DEP_MNRPR_1_L3,30 Pike St,New York,New York,10002,40.71294,-73.993034,Level 3,Level 3,CPE250C-500-CCS1-CHD,Unreachable,UNREACHABLE,NONE,Available,1,0,0,1,2023-12-15T15:28:11Z,0.0,2025-11-19T10:31:52.196106+00:00
NYC FLEET / OCME_26ST_S2_L3,421 E 26th St,New York,New York,10016,40.738407,-73.97542,Level 3,Level 3,CPE250C-500-CCS1-CHD,Reachable,AVAILABLE,NONE,Available,1,0,0,1,2025-11-19T10:24:49Z,0.0,2025-11-19T10:31:52.196106+00:00
NYC FLEET / OCME_26ST_S3_L3,421 E 26 St,New York,New York,10016,40.738266,-73.97462,Level 3,Level 3,CPE250C-500-CCS1-CHD,Reachable,AVAILABLE,NONE,Available,1,0,0,1,2025-11-19T10:21:50Z,0.0,2025-11-19T10:31:52.196106+00:00
NYC FLEET / OCME_26ST_S4_L3,421 E 26 St,New York,New York,10010,40.73829,-73.97499,Level 3,Level 3,CPE250C-500-CCS1-CHD,Reachable,AVAILABLE,NONE,Available,1,0,0,1,2025-11-19T10:23:22Z,0.0,2025-11-19T10:31:52.196106+00:00
NYC FLEET / OCME_26ST_S5_L3,421 E 26 St,New York,New York,10010,40.73823,-73.97496,Level 3,Level 3,CPE250C-500-CCS1-CHD,Reachable,AVAILABLE,NONE,Available,1,0,0,1,2025-11-19T10:23:25Z,0.0,2025-11-19T10:31:52.196106+00:00
NYC FLEET / DSNY_MN07-DCFC4,650 W 57th St,New York,New York,10019,40.770985624329846,-73.99346122453689,Level 3,Level 3,CPE250C-500-CCS1-CHD,Reachable,AVAILABLE,NONE,Available,1,0,0,1,2025-11-19T10:22:18Z,0.0,2025-11-19T10:31:52.196106+00:00
NYC FLEET / DSNY_FBF-S3,50 Aviation Rd,Brooklyn,New York,11234,40.59313908582011,-73.88367781349181,Level 2,Level 2 - Solar,CT4010-HD-GW,Unreachable,UNREACHABLE,NONE,Charging,1,1,0,0,2025-11-17T22:24:48Z,0.0,2025-11-19T10:31:52.196106+00:00
NYC FLEET / DOC_MCD_IT_1,0 Hazen St,New York,New York,11370,40.796593,-73.88564,Level 2,Level 2,CT4020-HD-GW,Reachable,AVAILABLE,NONE,Available,2,0,1,1,2025-11-19T10:21:44Z,0.0,2025-11-19T10:31:52.196106+00:00
NYC FLEET / DOC_IT_WAREHSE,15B West 5th Street East Elmhurst,New York,New York,11370,40.788563,-73.88816,Level 2,Level 2,CT4020-HD-GW,Reachable,AVAILABLE,NONE,Available,2,0,0,2,2025-11-19T10:23:28Z,0.0,2025-11-19T10:31:52.196106+00:00
NYC FLEET / NYPD_72PCT_2_L3,830 4 Ave,Sunset Park,New York,11232,40.657913,-74.001045,Level 3,Level 3,CPE250C-500-CCS1-CHD,Reachable,AVAILABLE,NONE,Available,1,0,0,1,2025-11-19T10:21:58Z,0.0,2025-11-19T10:31:52.196106+00:00
NYC FLEET / NYPD_72PCT_1_L3,830 4 Ave,Sunset Park,New York,11232,40.65789,-74.00104,Level 3,Level 3,CPE250C-500-CCS1-CHD,Reachable,AVAILABLE,NONE,Available,1,0,0,1,2025-11-19T10:20:48Z,0.0,2025-11-19T10:31:52.196106+00:00
NYC FLEET / DEPNTWNCRK_1_L3,319 Greenpoint Ave,Greenpoint,New York,11222,40.731834,-73.946686,Level 3,Level 3,CPE250C-500-CCS1-CHD,Reachable,AVAILABLE,NONE,Available,1,0,0,1,2025-11-19T10:24:28Z,0.0,2025-11-19T10:31:52.196106+00:00
NYC FLEET / DEPNTWNCRK_2_L3,319 Greenpoint Ave,Greenpoint,New York,11222,40.732014,-73.94678,Level 3,Level 3,CPE250C-500-CCS1-CHD,Unreachable,UNREACHABLE,NONE,Available,1,0,0,1,2025-10-15T19:38:28Z,0.0,2025-11-19T10:31:52.196106+00:00
NYC FLEET / DEPNTWNCRK_4_L3,319 Greenpoint Ave,Greenpoint,New York,11222,40.732304,-73.94683,Level 3,Level 3,CPE250C-500-CCS1-CHD,Reachable,AVAILABLE,NONE,Available,1,0,0,1,2025-11-19T10:25:24Z,0.0,2025-11-19T10:31:52.196106+00:00
NYC FLEET / DEPNTWNCRK_6_L3,319 Greenpoint Ave,Greenpoint,New York,11222,40.73234,-73.946846,Level 3,Level 3,CPE250C-500-CCS1-CHD,Reachable,AVAILABLE,NONE,Available,1,0,0,1,2025-11-19T10:25:59Z,0.0,2025-11-19T10:31:52.196106+00:00
NYC FLEET / DEP_SIREPAIR-S1,182 Joline Ave,Tottenville,New York,10307,40.508038,-74.23586,Level 2,Level 2 - Solar,CT4010-HD-GW,Reachable,AVAILABLE,NONE,Available,1,0,0,1,2025-11-19T10:21:52Z,0.0,2025-11-19T10:31:52.196106+00:00
NYC FLEET / NYPD_30PCT-1,451 W 151st St,New York,New York,10031,40.82875036954391,-73.94378305522538,Level 2,Level 2,CPF50-L18,Reachable,INUSE,NONE,Charging,1,1,0,0,2025-11-19T10:20:44Z,0.0,2025-11-19T10:31:52.196106+00:00
NYC FLEET / NYPD_30PCT-2,451 W 151st St,New York,New York,10031,40.82873108891808,-73.943713317791,Level 2,Level 2,CPF50-L18,Reachable,INUSE,NONE,Charging,1,1,0,0,2025-11-19T10:20:44Z,0.0,2025-11-19T10:31:52.196106+00:00
NYC FLEET / NYPD_32PCT-1,250 W 135th St,New York,New York,10030,40.81573060000001,-73.94532939570085,Level 2,Level 2,CPF50-L18,Reachable,AVAILABLE,NONE,Available,1,0,0,1,2025-11-19T10:27:41Z,0.0,2025-11-19T10:31:52.196106+00:00
NYC FLEET / HRA_FOSTER-S1,10300 Foster Avenue,Brooklyn,New York,11236,40.651981957466816,-73.89906476850891,Level 2,Level 2 - Solar,CT4010-HD-GW,Unreachable,UNREACHABLE,NONE,Available,1,0,0,1,2025-09-07T14:34:25Z,0.0,2025-11-19T10:31:52.196106+00:00
NYC FLEET / NYPD_34PCT-1,4295 Broadway,New York,New York,10033,40.85153568274478,-73.93534577269314,Level 2,Level 2,CPF50-L18,Reachable,AVAILABLE,NONE,Available,1,0,0,1,2025-11-19T10:25:47Z,0.0,2025-11-19T10:31:52.196106+00:00
NYC FLEET / NYPD_41PCT-1,1035 Longwood Ave,THE BRONX,New York,10459,40.816188800000006,-73.89561183619365,Level 2,Level 2,CPF50-L23,Reachable,AVAILABLE,NONE,Available,1,0,0,1,2025-11-19T10:25:09Z,0.0,2025-11-19T10:31:52.196106+00:00
NYC FLEET / NYPD_41PCT-2,1035 Longwood Ave,THE BRONX,New York,10459,40.816184232671546,-73.89560177790985,Level 2,Level 2,CPF50-L23,Reachable,AVAILABLE,NONE,Available,1,0,0,1,2025-11-19T10:25:09Z,0.0,2025-11-19T10:31:52.196106+00:00
NYC FLEET / NYPD_PSA7-1,737 Melrose Ave,The Bronx,New York,10451,40.820686638290404,-73.91587278650816,Level 2,Level 2,CPF50-L18,Unreachable,NEEDS SERVICE,Station Unreachable,Available,1,0,0,1,2025-03-07T04:03:47Z,0.0,2025-11-19T10:31:52.196106+00:00
NYC FLEET / NYPD_PSA7-2,737 Melrose Ave,The Bronx,New York,10451,40.82067547446619,-73.91587748037394,Level 2,Level 2,CPF50-L18,Reachable,INUSE,NONE,Available,1,0,0,1,2025-11-19T10:23:34Z,0.0,2025-11-19T10:31:52.196106+00:00
NYC FLEET / NYPD_TD12-1,480 Morris Park Ave,The Bronx,New York,10460,40.8411469728997,-73.87192617790986,Level 2,Level 2,CPF50-L23,Reachable,AVAILABLE,NONE,Available,1,0,0,1,2025-11-19T10:27:08Z,0.0,2025-11-19T10:31:52.196106+00:00
NYC FLEET / NYPD_TD12-2,480 Morris Park Ave,The Bronx,New York,10460,40.84114291457996,-73.87190874355126,Level 2,Level 2,CPF50-L23,Reachable,AVAILABLE,NONE,Available,1,0,0,1,2025-11-19T10:27:08Z,0.0,2025-11-19T10:31:52.196106+00:00
NYC FLEET / NYPD_102PCT-1,87-34 118th St,Queens,New York,11418,40.69871952513539,-73.83151941410351,Level 2,Level 2,CPF50-L23,Reachable,AVAILABLE,NONE,Available,1,0,0,1,2025-11-19T10:23:27Z,0.0,2025-11-19T10:31:52.196106+00:00
NYC FLEET / NYPD_102PCT-2,87-34 118th St,Queens,New York,11418,40.69873325135238,-73.83152645490217,Level 2,Level 2,CPF50-L23,Reachable,AVAILABLE,NONE,Available,1,0,0,1,2025-11-19T10:23:27Z,0.0,2025-11-19T10:31:52.196106+00:00
NYC FLEET / NYPD_106PCT-1,103-53 101st St,Queens,New York,11417,40.68223996803374,-73.83976704540368,Level 2,Level 2,CPF50-L18,Reachable,AVAILABLE,NONE,Available,1,0,0,1,2025-11-19T10:21:08Z,0.0,2025-11-19T10:31:52.196106+00:00
NYC FLEET / NYPD_107PCT-1,71-01 Parsons Blvd,Queens,New York,11365,40.729924765122064,-73.8105146932541,Level 2,Level 2,CPF50-L18,Reachable,INUSE,NONE,Charging,1,1,0,0,2025-11-19T10:21:18Z,0.0,2025-11-19T10:31:52.196106+00:00
NYC FLEET / NYPD_113PCT-1,167-02 Baisley Blvd,Jamaica,New York,11434,40.6798709675882,-73.77568103558197,Level 2,Level 2,CPF50-L18,Reachable,INUSE,NONE,Charging,1,1,0,0,2025-11-19T10:27:31Z,0.0,2025-11-19T10:31:52.196106+00:00
NYC FLEET / NYPD_112PCT-1,68-40 Austin St,Forest Hills,New York,11375,40.722362573782,-73.85149281043338,Level 2,Level 2,CPF50-L18,Reachable,INUSE,NONE,Occupied,1,0,1,0,2025-11-19T10:22:19Z,0.0,2025-11-19T10:31:52.196106+00:00
NYC FLEET / DSNY_SI3A-S3,1000 West Service Road,Staten Island,New York,10312,40.56853070232127,-74.19476036085204,Level 2,Level 2 - Solar,CT4010-HD-GW,Unreachable,UNREACHABLE,NONE,Available,1,0,0,1,2025-08-12T06:00:53Z,0.0,2025-11-19T10:31:52.196106+00:00
NYC FLEET / NYPD_SPRGFLD-1,174-20 N Boundary Rd,Queens,New York,11430,40.657947434900485,-73.77176417729815,Level 2,Level 2,CPF50-L18,Reachable,AVAILABLE,NONE,Available,1,0,0,1,2025-11-19T10:25:32Z,0.0,2025-11-19T10:31:52.196106+00:00
NYC FLEET / NYPD_SPRGFLD-2,174-20 N Boundary Rd,Queens,New York,11430,40.65794183931593,-73.77175344846209,Level 2,Level 2,CPF50-L18,Unreachable,NEEDS SERVICE,Station Unreachable,Available,1,0,0,1,2023-08-19T00:11:50Z,0.0,2025-11-19T10:31:52.196106+00:00
NYC FLEET / NYPD_SPRGFLD-3,174-20 N Boundary Rd,Queens,New York,11430,40.65793675242046,-73.77174372545441,Level 2,Level 2,CPF50-L18,Reachable,AVAILABLE,NONE,Available,1,0,0,1,2025-11-19T10:25:32Z,0.0,2025-11-19T10:31:52.196106+00:00
NYC FLEET / NYPD_SPRGFLD-4,174-20 N Boundary Rd,Queens,New York,11430,40.65793370028299,-73.77173534355124,Level 2,Level 2,CPF50-L18,Reachable,AVAILABLE,NONE,Available,1,0,0,1,2025-11-19T10:25:32Z,0.0,2025-11-19T10:31:52.196106+00:00
NYC FLEET / NYPD_SPRGFLD-5,174-20 N Boundary Rd,Queens,New York,11430,40.657929376421336,-73.77172595581969,Level 2,Level 2,CPF50-L18,Reachable,AVAILABLE,NONE,Available,1,0,0,1,2025-11-19T10:25:32Z,0.0,2025-11-19T10:31:52.196106+00:00
NYC FLEET / NYPD_SPRGFLD-6,174-20 N Boundary Rd,Queens,New York,11430,40.65792683297318,-73.77171824446877,Level 2,Level 2,CPF50-L18,Reachable,AVAILABLE,NONE,Available,1,0,0,1,2025-11-19T10:25:32Z,0.0,2025-11-19T10:31:52.196106+00:00
NYC FLEET / NYPD_62PCT-1,1925 Bath Ave,Brooklyn,New York,11214,40.602484254556096,-74.00312106963472,Level 2,Level 2,CPF50-L18,Reachable,INUSE,NONE,Charging,1,1,0,0,2025-11-19T10:21:32Z,0.0,2025-11-19T10:31:52.196106+00:00
NYC FLEET / NYPD_68PCT-1,333 65th St,Brooklyn,New York,11220,40.63898008233185,-74.02261991779098,Level 2,Level 2,CPF50-L18,Reachable,AVAILABLE,NONE,Available,1,0,0,1,2025-11-19T10:25:48Z,0.0,2025-11-19T10:31:52.196106+00:00
NYC FLEET / NYPD_68PCT-2,333 65th St,Brooklyn,New York,11220,40.63897652049313,-74.02261220644006,Level 2,Level 2,CPF50-L18,Reachable,AVAILABLE,NONE,Available,1,0,0,1,2025-11-19T10:25:48Z,0.0,2025-11-19T10:31:52.196106+00:00
NYC FLEET / NYPD_81PCT-1,30 Ralph Ave,Brooklyn,New York,11221,40.68966795068524,-73.92439445029716,Level 2,Level 2,CPF50-L18,Reachable,INUSE,NONE,Charging,1,1,0,0,2025-11-19T10:23:37Z,0.0,2025-11-19T10:31:52.196106+00:00
NYC FLEET / NYPD_81PCT-2,30 Ralph Ave,Brooklyn,New York,11221,40.68967150981789,-73.92436360489349,Level 2,Level 2,CPF50-L18,Unreachable,UNREACHABLE,NONE,Available,1,0,0,1,2025-11-15T11:29:27Z,0.0,2025-11-19T10:31:52.196106+00:00
NYC FLEET / NYPD_83PCT-1,480 Knickerbocker Ave,Brooklyn,New York,11237,40.69814968772268,-73.91782936533556,Level 2,Level 2,CPF50,Unreachable,UNKNOWN,NONE,Available,1,0,0,1,2025-11-07T18:59:35Z,0.0,2025-11-19T10:31:52.196106+00:00
NYC FLEET / NYPD_90PCT-1,487 Broadway,Brooklyn,New York,11211,40.706117925238985,-73.95083634110449,Level 2,Level 2,CPF50-L18,Reachable,AVAILABLE,NONE,Available,1,0,0,1,2025-11-19T10:26:56Z,0.0,2025-11-19T10:31:52.196106+00:00
NYC FLEET / NYPD_94PCT-1,9096 Meserole Ave,Brooklyn,New York,11222,40.72666635302845,-73.95329241779096,Level 2,Level 2,CPF50-L18,Reachable,AVAILABLE,NONE,Available,1,0,0,1,2025-11-19T10:23:10Z,0.0,2025-11-19T10:31:52.196106+00:00
NYC FLEET / NYPD_HIGHWAY2-1,2900 Flatbush Ave,Brooklyn,New York,11234,40.59919090761003,-73.91187180185241,Level 2,Level 2,CPF50-L18,Reachable,AVAILABLE,NONE,Available,1,0,0,1,2025-11-19T10:26:49Z,0.0,2025-11-19T10:31:52.196106+00:00
NYC FLEET / NYPD_HIGHWAY2-2,2900 Flatbush Ave,Brooklyn,New York,11234,40.59917970658964,-73.9118878951065,Level 2,Level 2,CPF50-L18,Reachable,AVAILABLE,NONE,Available,1,0,0,1,2025-11-19T10:26:49Z,0.0,2025-11-19T10:31:52.196106+00:00
NYC FLEET / DPR_BXRVRH-S1,1490 Sheridan Blvd.,Bronx,New York,10459,40.8328973,-73.8828633,Level 2,Level 2 - Solar,CT4010-HD-GW,Reachable,AVAILABLE,NONE,Available,1,0,0,1,2025-11-19T10:23:04Z,0.0,2025-11-19T10:31:52.196106+00:00
NYC FLEET / DEPQUEENSREP-S2,106-36 180th St,Queens,New York,11433,40.7030563042607,-73.77787580185243,Level 2,Level 2 - Solar,CT4010-HD-GW,Unreachable,UNREACHABLE,NONE,Charging,1,1,0,0,2025-11-18T20:09:54Z,0.0,2025-11-19T10:31:52.196106+00:00
NYC FLEET / NYPD_34PCT-2,4301 US-9,New York,New York,10033,40.85156002884101,-73.93532196808813,Level 2,Level 2,CPF50-L18,Reachable,INUSE,NONE,Charging,1,1,0,0,2025-11-19T10:25:47Z,0.0,2025-11-19T10:31:52.196106+00:00
NYC FLEET / NYPD_33PCT-1,2207 Amsterdam Ave,New York,New York,10032,40.840702189628544,-73.93573476319466,Level 2,Level 2,CPF50-L18,Reachable,AVAILABLE,NONE,Available,1,0,0,1,2025-11-19T10:26:31Z,0.0,2025-11-19T10:31:52.196106+00:00
NYC FLEET / NYPD_33PCT-2,2207 Amsterdam Ave,New York,New York,10032,40.84069508752118,-73.93569318895493,Level 2,Level 2,CPF50-L18,Reachable,AVAILABLE,NONE,Available,1,0,0,1,2025-11-19T10:26:31Z,0.0,2025-11-19T10:31:52.196106+00:00
NYC FLEET / DPR_GLDITRPK-S1,40 W 143rd St,New York,New York,10037,40.8180024,-73.9355229,Level 2,Level 2 - Solar,CT4010-HD-GW,Reachable,AVAILABLE,NONE,Available,1,0,0,1,2025-11-19T10:27:49Z,0.0,2025-11-19T10:31:52.196106+00:00
NYC FLEET / DSNY_FBF-S1,50 Aviation Rd,Brooklyn,New York,11234,40.593033175602145,-73.88377437301635,Level 2,Level 2 - Solar,CT4010-HD-GW,Unreachable,UNREACHABLE,NONE,Charging,1,1,0,0,2025-11-18T18:40:43Z,0.0,2025-11-19T10:31:52.196106+00:00
NYC FLEET / DSNY_FBF-S2,50 Aviation Rd,Brooklyn,New York,11234,40.5913067,-73.8808849,Level 2,Level 2 - Solar,CT4010-HD-GW,Reachable,AVAILABLE,NONE,Available,1,0,0,1,2025-11-19T10:27:12Z,0.0,2025-11-19T10:31:52.196106+00:00
NYC FLEET / DSNY_BK11-S3,1824 Shore Pkwy,Brooklyn,New York,11214,40.59136081315265,-73.99458889203072,Level 2,Level 2 - Solar,CT4010-HD-GW,Unreachable,UNREACHABLE,NONE,Charging,1,1,0,0,2025-11-17T19:02:14Z,0.0,2025-11-19T10:31:52.196106+00:00
NYC FLEET / DPR_CNRSIEPK-S1,1501 E 102nd St,Brooklyn,New York,11236,40.6361248,-73.88572500000001,Level 2,Level 2 - Solar,CT4010-HD-GW,Unreachable,UNREACHABLE,NONE,Charging,1,1,0,0,2025-11-17T23:30:50Z,0.0,2025-11-19T10:31:52.196106+00:00
NYC FLEET / DEP_OWLSHD_1_L3,6700 Shore Pkwy,Bay Ridge,New York,11236,40.64185,-74.03419,Level 3,Level 3,CPE250C-500-CCS1-CHD,Reachable,AVAILABLE,NONE,Available,1,0,0,1,2025-11-19T10:12:23Z,0.0,2025-11-19T10:31:52.196106+00:00
NYC FLEET / DSNY_BK11-S2,1824 Shore Pkwy,Brooklyn,New York,11214,40.59138601839338,-73.99462376074791,Level 2,Level 2 - Solar,CT4010-HD-GW,Unreachable,UNREACHABLE,NONE,Available,1,0,0,1,2025-09-05T14:38:42Z,0.0,2025-11-19T10:31:52.196106+00:00
NYC FLEET / DOB_QBH-S1,120-55 Queens Blvd Side lot 82nd Ave,Queens,New York,11424,40.71340391364971,-73.82697197036133,Level 2,Level 2 - Solar,CT4010-HD-GW,Unreachable,UNREACHABLE,NONE,Available,1,0,0,1,2025-11-19T04:03:56Z,0.0,2025-11-19T10:31:52.196106+00:00
NYC FLEET / DSNY_BK11-S4,1824 Shore Pkwy,Brooklyn,New York,11214,40.5903493,-73.99592659999999,Level 2,Level 2 - Solar,CT4010-HD-GW,Unreachable,NEEDS SERVICE,Powered Off,Charging,1,1,0,0,2025-11-18T18:07:35Z,0.0,2025-11-19T10:31:52.196106+00:00
NYC FLEET / DSNY_BK11-S1,1824 Shore Pkwy,Brooklyn,New York,11214,40.5904470672081,-73.99599097301635,Level 2,Level 2 - Solar,CT4010-HD-GW,Unreachable,UNREACHABLE,NONE,Available,1,0,0,1,2025-08-12T22:14:49Z,0.0,2025-11-19T10:31:52.196106+00:00
NYC FLEET / DEP-FMC,58-52 Grand Ave,Maspeth,New York,11378,40.71984,-73.91007,Level 2,Level 2,CT4020-HD-GW,Reachable,AVAILABLE,NONE,Available,2,0,0,2,2025-11-19T10:21:46Z,0.0,2025-11-19T10:31:52.196106+00:00
NYC FLEET / NYPD_40PCT,257 Alexander Ave,The Bronx,New York,10454,40.8103744,-73.9252934,Level 2,Level 2,CPF50-L18,Reachable,AVAILABLE,NONE,Available,1,0,0,1,2025-11-19T10:24:15Z,0.0,2025-11-19T10:31:52.196106+00:00
NYC FLEET / DPR_BUSHWICK-S2,29 N 10th St,Brooklyn,New York,11249,40.722675150304035,-73.96068576085206,Level 2,Level 2 - Solar,CT4010-HD-GW,Reachable,AVAILABLE,NONE,Available,1,0,0,1,2025-11-19T10:24:29Z,0.0,2025-11-19T10:31:52.196106+00:00
NYC FLEET / DSNY_SITS-S1,600 West Service Road,Travis - Chelsea,New York,10314,40.585632,-74.19317,Level 2,Level 2 - Solar,CT4010-HD2-GW-LTE,Unreachable,NEEDS SERVICE,Powered Off,Available,1,0,0,1,2025-07-25T14:40:42Z,0.0,2025-11-19T10:31:52.196106+00:00
NYC FLEET / DPRCUNINGHM-S3,Fresh Meadows Cunningham parking lot,Queens,New York,11366,40.72689304898152,-73.77408369629516,Level 2,Level 2 - Solar,CT4010-HD-GW,Reachable,INUSE,NONE,Occupied,1,0,1,0,2025-11-19T10:22:56Z,0.0,2025-11-19T10:31:52.196106+00:00
NYC FLEET / DPRWFMARINA-S2,1 Marina Rd,Queens,New York,11368,40.7612121,-73.8577648,Level 2,Level 2 - Public Stations - Solar,CT4010-HD2-GW-LTE,Unreachable,UNREACHABLE,NONE,Available,1,0,0,1,2025-11-15T20:59:09Z,0.0,2025-11-19T10:31:52.196106+00:00
NYC FLEET / DEP_TALLMN_1_L3,127-01 Powell Cove Blvd,Queens,New York,11356,40.794457522354456,-73.84592775714721,Level 3,Level 3,CPE250C-500-CCS1-CHD,Reachable,AVAILABLE,NONE,Available,1,0,0,1,2025-11-19T10:21:59Z,0.0,2025-11-19T10:31:52.196106+00:00
NYC FLEET / DOC_CHAPEL_1_L3,EOC,EAST ELMHURST,New York,11370,40.79329247719686,-73.8846574343586,Level 3,Level 3,CPE250C-500-CCS1-CHD,Reachable,AVAILABLE,NONE,Available,1,0,0,1,2025-11-19T10:25:46Z,0.0,2025-11-19T10:31:52.196106+00:00
NYC FLEET / NYPD_PCT45_1,2877 Barkley Ave,New york,New York,10465,40.83083518209866,-73.82723194047547,Level 2,Level 2,CPF50-L23,Reachable,AVAILABLE,NONE,Available,1,0,0,1,2025-11-19T10:20:54Z,0.0,2025-11-19T10:31:52.196106+00:00
NYC FLEET / NYPD_PCT47_1,4111 Laconia Ave,New York,New York,10466,40.8875432547874,-73.84754478650818,Level 2,Level 2,CPF50-L18,Reachable,AVAILABLE,NONE,Available,1,0,0,1,2025-11-19T10:21:05Z,0.0,2025-11-19T10:31:52.196106+00:00
NYC FLEET / NYPD_PCT47_2,4111 Laconia Ave,New York,New York,10466,40.887575698599406,-73.8474053116394,Level 2,Level 2,CPF50-L23,Reachable,AVAILABLE,NONE,Available,1,0,0,1,2025-11-19T10:21:05Z,0.0,2025-11-19T10:31:52.196106+00:00
NYC FLEET / NYPD_PCT47_3,4111 Laconia Ave,New York,New York,10466,40.8874702561522,-73.8476735325409,Level 2,Level 2,CPF50-L23,Reachable,AVAILABLE,NONE,Available,1,0,0,1,2025-11-19T10:21:05Z,0.0,2025-11-19T10:31:52.196106+00:00
NYC FLEET / DSNY_CRSQWDCFC1,52-35 58th St,Queens,New York,11377,40.73461,-73.909805,Level 3,Level 3,CPE250C-500-CCS1-CHD,Reachable,INUSE,NONE,Charging,1,1,0,0,2025-11-19T10:23:54Z,0.0,2025-11-19T10:31:52.196106+00:00
NYC FLEET / ACS_LINDEN_1_L3,2554 Linden Blvd,East New York,New York,11208,40.66768,-73.86975,Level 3,Level 3,CPE250C-500-CCS1-CHD,Reachable,AVAILABLE,NONE,Available,1,0,0,1,2025-11-19T10:27:08Z,0.0,2025-11-19T10:31:52.196106+00:00
NYC FLEET / ACS_LINDEN_2_L3,2554 Linden Blvd,East New York,New York,11208,40.667680000000004,-73.86971244907379,Level 3,Level 3,CPE250C-500-CCS1-CHD,Reachable,AVAILABLE,NONE,Available,1,0,0,1,2025-11-19T10:29:03Z,0.0,2025-11-19T10:31:52.196106+00:00
NYC FLEET / DHS_FARRAGUT-1,10107 Farragut Rd,Brooklyn,New York,11236,40.64851274111416,-73.9012841558197,Level 2,Level 2,CPF50-L18,Unreachable,UNREACHABLE,NONE,Available,1,0,0,1,2025-08-18T13:39:18Z,0.0,2025-11-19T10:31:52.196106+00:00
NYC FLEET / DHS_FARRAGUT-2,10107 Farragut Rd,Brooklyn,New York,11236,40.64852902147757,-73.90120905396728,Level 2,Level 2,CPF50-L18,Reachable,INUSE,NONE,Occupied,1,0,1,0,2025-11-19T10:23:56Z,0.0,2025-11-19T10:31:52.196106+00:00
NYC FLEET / DHS_FARRAGUT-3,10107 Farragut Rd,Brooklyn,New York,11236,40.64854530183704,-73.90113395211486,Level 2,Level 2,CPF50-L18,Reachable,INUSE,NONE,Occupied,1,0,1,0,2025-11-19T10:23:56Z,0.0,2025-11-19T10:31:52.196106+00:00
NYC FLEET / DSNY_MN06-DCFC1,299 South St,New York,New York,10002,40.70945,-73.98679,Level 3,Level 3,CPE250C-500-CCS1-CHD,Reachable,INUSE,NONE,Occupied,1,0,1,0,2025-11-19T10:28:21Z,0.0,2025-11-19T10:31:52.196106+00:00
NYC FLEET / DSNY_MN03-DCFC2,299 South St,New York,New York,10002,40.709896,-73.986046,Level 3,Level 3,CPE250C-500-CCS1-CHD,Reachable,AVAILABLE,NONE,Available,1,0,0,1,2025-11-19T10:26:29Z,0.0,2025-11-19T10:31:52.196106+00:00
NYC FLEET / DSNY_MN06-DCFC2,299 South St,New York,New York,10002,40.709503,-73.9869,Level 3,Level 3,CPE250C-500-CCS1-CHD,Reachable,INUSE,NONE,Available,1,0,0,1,2025-11-19T10:22:44Z,0.0,2025-11-19T10:31:52.196106+00:00
NYC FLEET / DSNY_MN03-DCFC1,299 South St,New York,New York,10002,40.70968,-73.98613,Level 3,Level 3,CPE250C-500-CCS1-CHD,Reachable,AVAILABLE,NONE,Available,1,0,0,1,2025-11-19T10:24:28Z,0.0,2025-11-19T10:31:52.196106+00:00
NYC FLEET / NYPD_ABBOTST-1,500 Abbot Street,The Bronx,New York,10470,40.90750075958229,-73.85419262698362,Level 2,Level 2,CPF50-L23,Reachable,INUSE,NONE,Occupied,1,0,1,0,2025-11-19T10:25:41Z,0.0,2025-11-19T10:31:52.196106+00:00
NYC FLEET / NYPD_ABBOTST-2,500 Abbot Street,The Bronx,New York,10470,40.90742778296755,-73.85418189814756,Level 2,Level 2,CPF50-L23,Reachable,INUSE,NONE,Occupied,1,0,1,0,2025-11-19T10:25:41Z,0.0,2025-11-19T10:31:52.196106+00:00
NYC FLEET / NYPD_ABBOTST-3,500 Abbot Street,The Bronx,New York,10470,40.9073953488907,-73.85425699999998,Level 2,Level 2,CPF50-L23,Reachable,INUSE,NONE,Occupied,1,0,1,0,2025-11-19T10:25:41Z,0.0,2025-11-19T10:31:52.196106+00:00
NYC FLEET / DEPJAMAICA_2_L3,150-20 134 Street,Queens,New York,11430,40.663273,-73.810455,Level 3,Level 3,CPE250C-500-CCS1-CHD,Reachable,AVAILABLE,NONE,Available,1,0,0,1,2025-11-19T10:24:50Z,0.0,2025-11-19T10:31:52.196106+00:00
NYC FLEET / DPR_SISHOPS1&2,21 Slosson Ave,Castleton Corners,New York,10314,40.620045,-74.11845,Level 2,Level 2,CT4020-HD2-GW-LTE,Reachable,INUSE,NONE,Available,2,0,1,1,2025-11-19T10:26:37Z,0.0,2025-11-19T10:31:52.196106+00:00
NYC FLEET / DEPDOWNSVILLE_5,nyc 30a,Downsville,New York,13755,42.08092,-74.99572,Level 2,Level 2,CT4020-HD-GW,Reachable,INUSE,NONE,Available,2,0,1,1,2025-11-19T10:26:57Z,0.0,2025-11-19T10:31:52.196106+00:00
NYC FLEET / DOF_STARR_2_L3,31-46 Greenpoint Ave,Queens,New York,11101,40.734703,-73.93632,Level 3,Level 3,CPE250C-500-CCS1-CHD,Reachable,AVAILABLE,NONE,Available,1,0,0,1,2025-11-19T10:20:29Z,0.0,2025-11-19T10:31:52.196106+00:00
NYC FLEET / DOF_STARR_1_L3,31-40 Greenpoint Ave,Queens,New York,11101,40.73471925931802,-73.93640046627044,Level 3,Level 3,CPE250C-500-CCS1-CHD,Reachable,AVAILABLE,NONE,Available,1,0,0,1,2025-11-19T10:20:49Z,0.0,2025-11-19T10:31:52.196106+00:00
NYC FLEET / DEP_26WARD_4_L3,12266 Flatlands Ave,Brooklyn,New York,11207,40.65237000000002,-73.87904798280336,Level 3,Level 3,CPE250C-500-CCS1-CHD,Reachable,AVAILABLE,NONE,Available,1,0,0,1,2025-11-19T10:28:05Z,0.0,2025-11-19T10:31:52.196106+00:00
NYC FLEET / DEP_SHAFT18,20 Westlake Dr,Valhalla,New York,10595,41.085792011425895,-73.7746631963867,Level 2,Level 2,CT4020-HD-GW,Reachable,AVAILABLE,NONE,Available,2,0,0,2,2025-11-19T10:21:32Z,0.0,2025-11-19T10:31:52.196106+00:00
NYC FLEET / DEP_TALLMAN-1,182 Powells Cove Blvd,Queens,New York,11356,40.793479336806236,-73.83984,Level 2,Level 2,CT4025-HD-GW,Reachable,AVAILABLE,NONE,Available,2,0,0,2,2025-11-19T10:22:17Z,0.0,2025-11-19T10:31:52.196106+00:00
NYC FLEET / DPR_5BORO#9A-B,14 Bronx Shore Rd,New York,New York,10035,40.79929572404342,-73.92238752209016,Level 2,Level 2,CT4020-HD-GW,Unreachable,UNREACHABLE,NONE,Available,2,0,0,2,2025-11-11T07:22:17Z,0.0,2025-11-19T10:31:52.196106+00:00
NYC FLEET / DEP_TALLMAN-2,182 Powells Cove Blvd,Queens,New York,11356,40.79347451408736,-73.83983396502971,Level 2,Level 2,CT4025-HD-GW,Reachable,AVAILABLE,NONE,Available,2,0,0,2,2025-11-19T10:20:51Z,0.0,2025-11-19T10:31:52.196106+00:00
NYC FLEET / DEP_TALLMAN-6,182 Powells Cove Blvd,Queens,New York,11356,40.79346004592856,-73.83980244907379,Level 2,Level 2,CT4025-HD-GW,Reachable,AVAILABLE,NONE,Available,2,0,0,2,2025-11-19T10:23:25Z,0.0,2025-11-19T10:31:52.196106+00:00
NYC FLEET / DEP_TALLMAN-7,182 Powells Cove Blvd,Queens,New York,11356,40.7934498928328,-73.83979842576026,Level 2,Level 2,CT4025-HD-GW,Reachable,AVAILABLE,NONE,Available,2,0,0,2,2025-11-19T10:24:07Z,0.0,2025-11-19T10:31:52.196106+00:00
NYC FLEET / DEP_TALLMAN-9,182 Powells Cove Blvd,Queens,New York,11356,40.793412409775755,-73.8397281441269,Level 2,Level 2,CT4025-HD2-GW-LTE,Reachable,AVAILABLE,NONE,Available,2,0,0,2,2025-11-19T10:26:58Z,0.0,2025-11-19T10:31:52.196106+00:00
NYC FLEET / DEP_TALLMAN-8,182 Powells Cove Blvd,Queens,New York,11356,40.79343880783645,-73.83977642388916,Level 2,Level 2,CT4025-HD-GW,Reachable,AVAILABLE,NONE,Available,2,0,0,2,2025-11-19T10:22:57Z,0.0,2025-11-19T10:31:52.196106+00:00
NYC FLEET / NYPD_69PCT-1,9720 Foster Ave,Brooklyn,New York,11236,40.648491199999995,-73.90496593128282,Level 2,Level 2,CPF50-L18,Reachable,INUSE,NONE,Charging,1,1,0,0,2025-11-19T10:24:01Z,0.0,2025-11-19T10:31:52.196106+00:00
NYC FLEET / NYPD_69PCT-2,9720 Foster Ave,Brooklyn,New York,11236,40.648479498482565,-73.90494514416295,Level 2,Level 2,CPF50-L18,Unreachable,NEEDS SERVICE,Station Unreachable,Available,1,0,0,1,2024-07-31T12:36:44Z,0.0,2025-11-19T10:31:52.196106+00:00
NYC FLEET / DOE_MTWAIN-2,2401 Neptune Ave,Brooklyn,New York,11224,40.578716,-73.99246,Level 2,Level 2,CT4020-HD2-GW-LTE,Reachable,AVAILABLE,NONE,Available,2,0,0,2,2025-11-19T10:25:18Z,0.0,2025-11-19T10:31:52.196106+00:00
NYC FLEET / DSNY_M04-DCFC4,650 W 57th St,New York,New York,10019,40.77101,-73.99348,Level 3,Level 3,CPE250C-500-CCS1-CHD,Reachable,INUSE,NONE,Occupied,1,0,1,0,2025-11-19T10:28:08Z,0.0,2025-11-19T10:31:52.196106+00:00
NYC FLEET / DSNY_M04-DCFC1,650 W 57th St,New York,New York,10019,40.77100973826045,-73.99347805889548,Level 3,Level 3,CPE250C-500-CCS1-CHD,Reachable,AVAILABLE,NONE,Available,1,0,0,1,2025-11-19T10:22:49Z,0.0,2025-11-19T10:31:52.196106+00:00
NYC FLEET / DSNY_M04-DCFC3,630 W 57th St,New York,New York,10019,40.77097,-73.993675,Level 3,Level 3,CPE250C-500-CCS1-CHD,Reachable,AVAILABLE,NONE,Available,1,0,0,1,2025-11-19T10:25:10Z,0.0,2025-11-19T10:31:52.196106+00:00
NYC FLEET / DSNY_MN07-DCFC3,650 W 57th St,New York,New York,10019,40.77097038953146,-73.9934451312828,Level 3,Level 3,CPE250C-500-CCS1-CHD,Reachable,AVAILABLE,NONE,Available,1,0,0,1,2025-11-19T10:26:48Z,0.0,2025-11-19T10:31:52.196106+00:00
NYC FLEET / DSNY_MN07-DCFC2,650 W 57th St,New York,New York,10019,40.77100542956252,-73.99346524785041,Level 3,Level 3,CPE250C-500-CCS1-CHD,Reachable,INUSE,NONE,Occupied,1,0,1,0,2025-11-19T10:25:52Z,0.0,2025-11-19T10:31:52.196106+00:00
NYC FLEET / DSNY_MN07-DCFC1,650 W 57th St,New York,New York,10019,40.771012031305425,-73.99350548098563,Level 3,Level 3,CPE250C-500-CCS1-CHD,Reachable,AVAILABLE,NONE,Available,1,0,0,1,2025-11-19T10:23:55Z,0.0,2025-11-19T10:31:52.196106+00:00
NYC FLEET / FDNY_FTB400B-1,400 Murray Ave,Queens,New York,11359,40.792905469364065,-73.7772150828207,Level 2,Level 2,CPF50-L18,Reachable,AVAILABLE,NONE,Available,1,0,0,1,2025-11-19T10:29:57Z,0.0,2025-11-19T10:31:52.196106+00:00
NYC FLEET / DOE_R0002,6581 Hylan Blvd,Staten Island,New York,10309,40.511734,-74.22163,Level 2,Level 2,CT4020-HD2-GW-LTE,Reachable,INUSE,NONE,Occupied,2,0,2,0,2025-11-19T10:24:27Z,0.0,2025-11-19T10:31:52.196106+00:00
NYC FLEET / DSNY_M04-DCFC2,650 W 57th St,New York,New York,10019,40.770997812166044,-73.99348536441802,Level 3,Level 3,CPE250C-500-CCS1-CHD,Reachable,AVAILABLE,NONE,Available,1,0,0,1,2025-11-19T10:27:18Z,0.0,2025-11-19T10:31:52.196106+00:00
NYC FLEET / DOE_Q859LINDEN,30-48 Linden Pl,Queens,New York,11354,40.76962,-73.83315,Level 2,Level 2,CT4020-HD-GW,Reachable,AVAILABLE,NONE,Available,2,0,0,2,2025-11-19T10:22:23Z,0.0,2025-11-19T10:31:52.196106+00:00
NYC FLEET / DPRSIFRSTRY9&10,21 Slosson Ave,Staten Island,New York,10314,40.620216,-74.11869,Level 2,Level 2,CT4020-HD2-GW-LTE,Reachable,INUSE,NONE,Occupied,2,0,2,0,2025-11-19T10:22:21Z,0.0,2025-11-19T10:31:52.196106+00:00
NYC FLEET / DEPJAMAICA_3_L3,150-20 134th St,Queens,New York,11420,40.663296,-73.806915,Level 3,Level 3,CPE250C-500-CCS1-CHD,Reachable,AVAILABLE,NONE,Available,1,0,0,1,2025-11-19T10:25:09Z,0.0,2025-11-19T10:31:52.196106+00:00
NYC FLEET / DEPJAMAICA_1_L3,150-20 134th St,Queens,New York,11420,40.66328989621534,-73.80686806134223,Level 3,Level 3,CPE250C-500-CCS1-CHD,Reachable,AVAILABLE,NONE,Available,1,0,0,1,2025-11-19T10:20:09Z,0.0,2025-11-19T10:31:52.196106+00:00
NYC FLEET / DHSFARAGUT_1_L3,10107 Farragut Rd,Brooklyn,New York,11236,40.64842940418925,-73.90138291534424,Level 3,Level 3,CPE250C-500-CCS1-CHD,Reachable,AVAILABLE,NONE,Available,1,0,0,1,2025-11-19T10:20:23Z,0.0,2025-11-19T10:31:52.196106+00:00
NYC FLEET / DHSFARAGUT_2_L3,10107 Farragut Rd,Brooklyn,New York,11236,40.648447719620705,-73.90135475214959,Level 3,Level 3,CPE250C-500-CCS1-CHD,Reachable,INUSE,NONE,Occupied,1,0,1,0,2025-11-19T10:27:37Z,0.0,2025-11-19T10:31:52.196106+00:00
NYC FLEET / DHSFARAGUT_3_L3,10107 Farragut Rd,Brooklyn,New York,11236,40.648464,-73.90134,Level 3,Level 3,CPE250C-500-CCS1-CHD,Reachable,AVAILABLE,NONE,Available,1,0,0,1,2025-11-19T10:23:36Z,0.0,2025-11-19T10:31:52.196106+00:00
NYC FLEET / DHSFARAGUT_4_L3,10107 Farragut Rd,Brooklyn,New York,11236,40.648473666473336,-73.90132860061169,Level 3,Level 3,CPE250C-500-CCS1-CHD,Reachable,INUSE,NONE,Occupied,1,0,1,0,2025-11-19T10:28:12Z,0.0,2025-11-19T10:31:52.196106+00:00
NYC FLEET / DEP_TALLMAN-4,182 Powells Cove Blvd,Queens,New York,11356,40.79337298395582,-73.83967902938844,Level 2,Level 2,CT4025-HD2-GW-LTE,Reachable,AVAILABLE,NONE,Available,2,0,0,2,2025-11-19T10:20:21Z,0.0,2025-11-19T10:31:52.196106+00:00
NYC FLEET / FDNY_REVIEW-2,30-30 Review Ave,Queens,New York,11101,40.736407245633856,-73.9399076073576,Level 2,Level 2,CPF50-L18,Reachable,AVAILABLE,NONE,Available,1,0,0,1,2025-11-19T10:27:25Z,0.0,2025-11-19T10:31:52.196106+00:00
NYC FLEET / DPR_SISHOPS3&4,25 Slosson Ave,Staten Island,New York,10314,40.620045,-74.11844,Level 2,Level 2,CT4020-HD2-GW-LTE,Reachable,INUSE,NONE,Charging,2,1,1,0,2025-11-19T10:29:57Z,0.0,2025-11-19T10:31:52.196106+00:00
NYC FLEET / DSNY_SI01-DCFC2,539 Jersey St,Staten Island,New York,10301,40.636387610434504,-74.08402026256563,Level 3,Level 3,CPE250C-500-CCS1-CHD,Unreachable,UNREACHABLE,NONE,Available,1,0,0,1,2025-10-16T12:11:03Z,0.0,2025-11-19T10:31:52.196106+00:00
NYC FLEET / FDNY 35ST LIC4,4834 35th St,Queens,New York,11101,40.73968381456561,-73.93090710061168,Level 2,Level 2,CPF50-L18,Reachable,AVAILABLE,NONE,Available,1,0,0,1,2025-11-19T10:21:08Z,0.0,2025-11-19T10:31:52.196106+00:00
NYC FLEET / FDNY_REVIEW-1,30-30 Review Ave,Queens,New York,11101,40.73640572136163,-73.93992034785042,Level 2,Level 2,CPF50-L18,Reachable,INUSE,NONE,Occupied,1,0,1,0,2025-11-19T10:27:25Z,0.0,2025-11-19T10:31:52.196106+00:00
NYC FLEET / DPR_CANARSIE#1,E 88th St,Brooklyn,New York,11236,40.62894,-73.89592,Level 2,Level 2,CT4020-HD2-GW-LTE,Unreachable,UNREACHABLE,NONE,Available,2,0,0,2,2025-11-13T18:13:54Z,0.0,2025-11-19T10:31:52.196106+00:00
NYC FLEET / DSNY_SI01-DCFC1,539 Jersey St,Staten Island,New York,10301,40.63641,-74.08409,Level 3,Level 3,CPE250C-500-CCS1-CHD,Unreachable,UNREACHABLE,NONE,Available,1,0,0,1,2025-10-16T12:08:55Z,0.0,2025-11-19T10:31:52.196106+00:00
NYC FLEET / DOTSIDUBOIS,5 Dubois Ave,Staten Island,New York,10310,40.632156,-74.127625,Level 2,Level 2,CT4010-HD-GW,Reachable,AVAILABLE,NONE,Available,1,0,0,1,2025-11-19T10:29:55Z,0.0,2025-11-19T10:31:52.196106+00:00
NYC FLEET / DOE_Q430-1,58-20 Utopia Pkwy,Queens,New York,11365,40.740715,-73.7949,Level 2,Level 2,CT4020-HD2-GW-LTE,Reachable,INUSE,NONE,Occupied,2,0,2,0,2025-11-19T10:21:17Z,0.0,2025-11-19T10:31:52.196106+00:00
NYC FLEET / DOC_GRVC-1,09-09 Hazen Street,The Bronx,New York,11370,40.789368482741,-73.875277136433,Level 2,Level 2,CT4020-HD-GW,Reachable,AVAILABLE,NONE,Available,2,0,0,2,2025-11-19T10:23:15Z,0.0,2025-11-19T10:31:52.196106+00:00
NYC FLEET / DOC_DCJC,Rikers Island,East Elmhurst,New York,11370,40.789553252467,-73.879065130392,Level 2,Level 2,CT4020-HD-GW,Reachable,INUSE,NONE,Available,2,1,0,1,2025-11-19T10:21:25Z,0.0,2025-11-19T10:31:52.196106+00:00
NYC FLEET / DEPVALHALLA1_L3,10 Walker Rd,Valhalla,New York,10595,41.078533,-73.814095,Level 3,Level 3,CPE250C-500-CCS1-CHD,Reachable,AVAILABLE,NONE,Available,1,0,0,1,2025-11-19T10:27:14Z,0.0,2025-11-19T10:31:52.196106+00:00
NYC FLEET / DOC_RMSC-1,RMSC,New York,New York,11370,40.79210084727892,-73.87679243551253,Level 2,Level 2,CT4020-HD-GW,Reachable,INUSE,NONE,Charging,2,2,0,0,2025-11-19T10:24:56Z,0.0,2025-11-19T10:31:52.196106+00:00
NYC FLEET / DEP_SHAFT18-3,1 W Westlake Dr,Valhalla,New York,10595,41.08519,-73.77546,Level 2,Level 2,CT4020-HD-GW,Reachable,AVAILABLE,NONE,Available,2,0,0,2,2025-11-19T10:21:23Z,0.0,2025-11-19T10:31:52.196106+00:00
NYC FLEET / DEP_SHAFT18-2,1 W Westlake Dr,Valhalla,New York,10595,41.0853,-73.775604,Level 2,Level 2,CT4020-HD-GW,Reachable,AVAILABLE,NONE,Available,2,0,0,2,2025-11-19T10:24:15Z,0.0,2025-11-19T10:31:52.196106+00:00
NYC FLEET / DPR_KAISERPARK1,2529 Neptune Ave,Brooklyn,New York,11224,40.578484,-73.99518,Level 2,Level 2,CT4020-HD2-GW-LTE,Reachable,AVAILABLE,NONE,Available,2,0,0,2,2025-11-19T10:27:17Z,0.0,2025-11-19T10:31:52.196106+00:00
NYC FLEET / DPR_BKSHOPS#1,48 West Drive,Brooklyn,New York,11215,40.664977003535,-73.975119457394,Level 2,Level 2,CT4020-HD2-GW-LTE,Reachable,INUSE,NONE,Available,2,0,1,1,2025-11-19T10:24:26Z,0.0,2025-11-19T10:31:52.196106+00:00
NYC FLEET / DSNY_CRSPSDCFC1,52-35 58th St,Queens,New York,11377,40.734203,-73.908066,Level 3,Level 3,CPE250C-500-CCS1-CHD,Reachable,AVAILABLE,NONE,Available,1,0,0,1,2025-11-19T10:29:18Z,0.0,2025-11-19T10:31:52.196106+00:00
NYC FLEET / DPR_BKSHOPS#2,46 West Dr,Brooklyn,New York,11215,40.6653,-73.97487,Level 2,Level 2,CT4020-HD2-GW-LTE,Reachable,AVAILABLE,NONE,Available,2,0,1,1,2025-11-19T10:20:46Z,0.0,2025-11-19T10:31:52.196106+00:00
NYC FLEET / DCAS100GLD_5_L3,100 Gold St,New York,New York,10038,40.710384,-74.00313,Level 3,Level 3,CPE250C-500-CCS1-CHD,Reachable,AVAILABLE,NONE,Available,1,0,0,1,2025-11-19T10:27:55Z,0.0,2025-11-19T10:31:52.196106+00:00
NYC FLEET / DOE_ZEREGA-1,1230 Zerega Ave,The Bronx,New York,10462,40.833973,-73.84487,Level 2,Level 2,CT4020-HD2-GW-LTE,Reachable,AVAILABLE,NONE,Available,2,0,0,2,2025-11-19T10:25:29Z,0.0,2025-11-19T10:31:52.196106+00:00
NYC FLEET / DOE_GRANDST,128 Waterbury St,Brooklyn,New York,11206,40.71171,-73.937965,Level 2,Level 2,CT4020-HD2-GW-LTE,Reachable,INUSE,NONE,Available,2,0,1,1,2025-11-19T10:23:53Z,0.0,2025-11-19T10:31:52.196106+00:00
NYC FLEET / DOE_M104,344-360 2nd Ave,New York,New York,10010,40.735845415233165,-73.98126104550782,Level 2,Level 2,CT4020-HD2-GW-LTE,Reachable,AVAILABLE,NONE,Available,2,0,0,2,2025-11-19T10:24:10Z,0.0,2025-11-19T10:31:52.196106+00:00
NYC FLEET / DSNY_QENFDCFC-2,2720 53rd Ave,Queens,New York,11377,40.73346,-73.90855,Level 3,Level 3,CPE250C-500-CCS1-CHD,Reachable,INUSE,NONE,Occupied,1,0,1,0,2025-11-19T10:28:18Z,0.0,2025-11-19T10:31:52.196106+00:00
NYC FLEET / DSNY_QENFDCFC-1,2720 53rd Ave,Queens,New York,11377,40.73345,-73.908485,Level 3,Level 3,CPE250C-500-CCS1-CHD,Reachable,INUSE,NONE,Occupied,1,0,1,0,2025-11-19T10:23:57Z,0.0,2025-11-19T10:31:52.196106+00:00
NYC FLEET / DPR_BKSHOPS#3,50 West Dr,Brooklyn,New York,11215,40.66531,-73.97478,Level 2,Level 2,CT4020-HD2-GW-LTE,Reachable,AVAILABLE,NONE,Available,2,1,0,1,2025-11-19T10:27:52Z,0.0,2025-11-19T10:31:52.196106+00:00
NYC FLEET / DOC_RNDC-1,11-11 Hazen Street,The Bronx,New York,11370,40.788789090766,-73.883641935962,Level 2,Level 2,CT4020-HD2-GW-LTE,Reachable,AVAILABLE,NONE,Available,2,0,0,2,2025-11-19T10:26:25Z,0.0,2025-11-19T10:31:52.196106+00:00
NYC FLEET / DSNY_QENFDCFC-3,58-73 53rd Ave,Queens,New York,11377,40.733475,-73.90636,Level 3,Level 3,CPE250C-500-CCS1-CHD,Reachable,INUSE,NONE,Occupied,1,0,1,0,2025-11-19T10:24:55Z,0.0,2025-11-19T10:31:52.196106+00:00
NYC FLEET / DOT_SISIMYARD,99-2703 Richmond Terrace,Staten Island,New York,10303,40.63787,-74.15033,Level 2,Level 2,CT4020-HD-GW,Reachable,AVAILABLE,NONE,Available,2,0,0,2,2025-11-19T10:29:40Z,0.0,2025-11-19T10:31:52.196106+00:00
NYC FLEET / DOC_EMTC-1,10- 10 Hazen St,Queens,New York,11370,40.79035622978977,-73.8857128157997,Level 2,Level 2,CT4020-HD-GW,Reachable,AVAILABLE,NONE,Available,2,0,0,2,2025-11-19T10:22:49Z,0.0,2025-11-19T10:31:52.196106+00:00
NYC FLEET / DSNY_CRSPCDCFC,52-35 58th St,Queens,New York,11377,40.734333,-73.90796,Level 3,Level 3,CPE250C-500-CCS1-CHD,Reachable,AVAILABLE,NONE,Available,1,0,0,1,2025-11-19T10:29:38Z,0.0,2025-11-19T10:31:52.196106+00:00
NYC FLEET / DSNY_CRSNEDCFC1,52-35 58th St,Queens,New York,11377,40.734542562336955,-73.90978488343238,Level 3,Level 3,CPE250C-500-CCS1-CHD,Reachable,INUSE,NONE,Charging,1,1,0,0,2025-11-19T10:22:36Z,0.0,2025-11-19T10:31:52.196106+00:00
NYC FLEET / DSNY_CRSNEDCFC2,52-35 58th St,Queens,New York,11377,40.7345653840463,-73.9097714723873,Level 3,Level 3,CPE250C-500-CCS1-CHD,Reachable,INUSE,NONE,Occupied,1,0,1,0,2025-11-19T10:23:05Z,0.0,2025-11-19T10:31:52.196106+00:00
NYC FLEET / DSNY_CRSQWDCFC2,52-35 58th St,Queens,New York,11377,40.734608,-73.909805,Level 3,Level 3,CPE250C-500-CCS1-CHD,Reachable,AVAILABLE,NONE,Available,1,0,0,1,2025-11-19T10:23:24Z,0.0,2025-11-19T10:31:52.196106+00:00
NYC FLEET / DSNY_CRSBBMDCFC,52-35 58th St,Queens,New York,11377,40.734615,-73.90981,Level 3,Level 3,CPE250C-500-CCS1-CHD,Reachable,AVAILABLE,NONE,Available,1,0,0,1,2025-11-19T10:28:43Z,0.0,2025-11-19T10:31:52.196106+00:00
NYC FLEET / DEP_TALLMAN-5,182 Powells Cove Blvd,Queens,New York,11356,40.79335,-73.83987,Level 2,Level 2,CT4025-HD-GW,Reachable,AVAILABLE,NONE,Available,2,0,1,1,2025-11-19T10:25:52Z,0.0,2025-11-19T10:31:52.196106+00:00
NYC FLEET / DEP_TALLMAN-3,182 Powells Cove Blvd,Queens,New York,11356,40.793453,-73.83971,Level 2,Level 2,CT4025-HD2-GW-LTE,Reachable,AVAILABLE,NONE,Available,2,0,0,2,2025-11-19T10:20:10Z,0.0,2025-11-19T10:31:52.196106+00:00
NYC FLEET / DPR_CWSSHOPS#2,860 E 138th St,The Bronx,New York,10454,40.80289,-73.90917,Level 2,Level 2,CT4020-HD2-GW-LTE,Reachable,INUSE,NONE,Available,2,0,1,1,2025-11-19T10:27:03Z,0.0,2025-11-19T10:31:52.196106+00:00
NYC FLEET / DPR_CWSSHOPS#3,860 E 138th St,The Bronx,New York,10454,40.80291,-73.90921,Level 2,Level 2,CT4020-HD2-GW-LTE,Reachable,AVAILABLE,NONE,Available,2,0,1,1,2025-11-19T10:20:28Z,0.0,2025-11-19T10:31:52.196106+00:00
NYC FLEET / DPR_CWSSHOPS#7,860 E 138th St,The Bronx,New York,10454,40.802956,-73.9093,Level 2,Level 2,CT4020-HD2-GW-LTE,Reachable,AVAILABLE,NONE,Available,2,0,0,2,2025-11-19T10:20:02Z,0.0,2025-11-19T10:31:52.196106+00:00
NYC FLEET / DPR_CWSSHOPS#8,860 E 138th St,The Bronx,New York,10454,40.80304,-73.90941,Level 2,Level 2,CT4020-HD2-GW-LTE,Reachable,AVAILABLE,NONE,Available,2,0,0,2,2025-11-19T10:23:25Z,0.0,2025-11-19T10:31:52.196106+00:00
NYC FLEET / DPR_CWSSHOPS#4,860 E 138th St,The Bronx,New York,10454,40.802963,-73.909256,Level 2,Level 2,CT4020-HD2-GW-LTE,Reachable,AVAILABLE,NONE,Available,2,0,0,2,2025-11-19T10:22:47Z,0.0,2025-11-19T10:31:52.196106+00:00
NYC FLEET / DPR_CWSSHOPS#1,850 E 138th St,The Bronx,New York,10454,40.802876,-73.90915,Level 2,Level 2,CT4020-HD2-GW-LTE,Reachable,AVAILABLE,NONE,Available,2,0,1,1,2025-11-19T10:24:33Z,0.0,2025-11-19T10:31:52.196106+00:00
NYC FLEET / DOC_NIC-1,15-00 Hazen St,Queens,New York,11370,40.79574589045831,-73.88533530324936,Level 2,Level 2,CT4020-HD-GW,Reachable,AVAILABLE,NONE,Available,2,0,0,2,2025-11-19T10:20:19Z,0.0,2025-11-19T10:31:52.196106+00:00
NYC FLEET / DPR_CWSSHOPS#5,860 E 138th St,The Bronx,New York,10454,40.80292,-73.90924,Level 2,Level 2,CT4020-HD2-GW-LTE,Reachable,INUSE,NONE,Available,2,0,1,1,2025-11-19T10:28:53Z,0.0,2025-11-19T10:31:52.196106+00:00
NYC FLEET / DPR_CWSSHOPS#6,860 E 138th St,The Bronx,New York,10454,40.80301,-73.90937,Level 2,Level 2,CT4020-HD2-GW-LTE,Reachable,INUSE,NONE,Available,2,0,0,2,2025-11-19T10:26:07Z,0.0,2025-11-19T10:31:52.196106+00:00
NYC FLEET / NYPD_66PCT-1,5822 16th Ave,Brooklyn,New York,11204,40.62570152129504,-73.99138795276127,Level 2,Level 2,CPF50-L18,Reachable,AVAILABLE,NONE,Available,1,0,0,1,2025-11-19T10:28:53Z,0.0,2025-11-19T10:31:52.196106+00:00
NYC FLEET / NYPD_71PCT-1,421 Empire Blvd,Brooklyn,New York,11225,40.6645474397694,-73.94799247364541,Level 2,Level 2,CPF50-L18,Reachable,AVAILABLE,NONE,Available,1,0,0,1,2025-11-19T10:23:32Z,0.0,2025-11-19T10:31:52.196106+00:00
NYC FLEET / NYPD_71PCT-2,421 Empire Blvd,Brooklyn,New York,11225,40.66457694083384,-73.9479897914364,Level 2,Level 2,CPF50-L18,Reachable,AVAILABLE,NONE,Available,1,0,0,1,2025-11-19T10:23:32Z,0.0,2025-11-19T10:31:52.196106+00:00
NYC FLEET / NYPD_25PCT-2,120 E 119th St,New York,New York,10035,40.80081875440918,-73.94104855337295,Level 2,Level 2,CPF50-L18,Reachable,INUSE,NONE,Occupied,1,0,1,0,2025-11-19T10:20:10Z,0.0,2025-11-19T10:31:52.196106+00:00
NYC FLEET / DPR_CWSSHOPS#9,860 E 138th St,The Bronx,New York,10454,40.803074,-73.90949,Level 2,Level 2,CT4020-HD2-GW-LTE,Reachable,AVAILABLE,NONE,Available,2,0,1,1,2025-11-19T10:23:57Z,0.0,2025-11-19T10:31:52.196106+00:00
NYC FLEET / DOT_22STLOT-1,21-99 Queens Plaza N,Queens,New York,11101,40.752712,-73.94219,Level 2,Level 2,CT4020-HD-GW,Reachable,AVAILABLE,NONE,Available,2,0,0,2,2025-11-19T10:26:56Z,0.0,2025-11-19T10:31:52.196106+00:00
NYC FLEET / DOT_22STLOT-2,21-99 Queens Plaza N,Queens,New York,11101,40.752728,-73.94235,Level 2,Level 2,CT4020-HD-GW,Reachable,AVAILABLE,NONE,Available,2,0,0,2,2025-11-19T10:25:56Z,0.0,2025-11-19T10:31:52.196106+00:00
NYC FLEET / DOT_22STLOT-3,21-99 Queens Plaza N,Queens,New York,11101,40.75275,-73.942245,Level 2,Level 2,CT4020-HD-GW,Reachable,AVAILABLE,NONE,Available,2,0,0,2,2025-11-19T10:23:20Z,0.0,2025-11-19T10:31:52.196106+00:00
NYC FLEET / NYPD_PSA5-1,219 E 123rd St,New York,New York,10035,40.80219064394432,-73.9357692294651,Level 2,Level 2,CPF50-L23,Reachable,AVAILABLE,NONE,Available,1,0,0,1,2025-11-19T10:25:24Z,0.0,2025-11-19T10:31:52.196106+00:00
NYC FLEET / NYPD_PSA5-2,221 E 123rd St,New York,New York,10035,40.80218353771212,-73.93573570185241,Level 2,Level 2,CPF50-L23,Reachable,AVAILABLE,NONE,Available,1,0,0,1,2025-11-19T10:25:24Z,0.0,2025-11-19T10:31:52.196106+00:00
NYC FLEET / DOC_CHAPEL_5_L3,EOC,EAST ELMHURST,New York,11370,40.79318818996785,-73.88464845519066,Level 3,Level 3,CPE250C-500-CCS1-CHD,Reachable,AVAILABLE,NONE,Available,1,0,0,1,2025-11-19T10:26:03Z,0.0,2025-11-19T10:31:52.196106+00:00
NYC FLEET / DOC_CHAPEL_3_L3,EOC,EAST ELMHURST,New York,11370,40.79325255166593,-73.88464454844475,Level 3,Level 3,CPE250C-500-CCS1-CHD,Reachable,AVAILABLE,NONE,Available,1,0,0,1,2025-11-19T10:24:25Z,0.0,2025-11-19T10:31:52.196106+00:00
NYC FLEET / DOC_CHAPEL_4_L3,EOC,EAST ELMHURST,New York,11370,40.793220580780755,-73.8846502625656,Level 3,Level 3,CPE250C-500-CCS1-CHD,Reachable,AVAILABLE,NONE,Available,1,0,0,1,2025-11-19T10:20:29Z,0.0,2025-11-19T10:31:52.196106+00:00
NYC FLEET / DOC_CHAPEL_2_L3,EOC,EAST ELMHURST,New York,11370,40.79327236173178,-73.88464538773155,Level 3,Level 3,CPE250C-500-CCS1-CHD,Reachable,AVAILABLE,NONE,Available,1,0,0,1,2025-11-19T10:25:13Z,0.0,2025-11-19T10:31:52.196106+00:00
NYC FLEET / DEP_GOWANUSSP,201 Douglass St,Brooklyn,New York,11217,40.68188,-73.987206,Level 2,Level 2,CT4020-HD-GW,Reachable,AVAILABLE,NONE,Available,2,0,0,2,2025-11-19T10:23:28Z,0.0,2025-11-19T10:31:52.196106+00:00
NYC FLEET / NYPD_BMS_2_L3,59-6 Laurel Hill Blvd,Queens,New York,11377,40.736664,-73.906166,Level 3,Level 3,CPE250C-500-CCS1-CHD,Reachable,INUSE,NONE,Occupied,1,0,1,0,2025-11-19T10:29:07Z,0.0,2025-11-19T10:31:52.196106+00:00
NYC FLEET / NYPD_BMS_1_L3,59-6 Laurel Hill Blvd,Queens,New York,11377,40.736862,-73.90646,Level 3,Level 3,CPE250C-500-CCS1-CHD,Reachable,INUSE,NONE,Occupied,1,0,1,0,2025-11-19T10:27:04Z,0.0,2025-11-19T10:31:52.196106+00:00
NYC FLEET / NYPD_PSA4-1,130 Loisaida Ave,New York,New York,10009,40.72473746912288,-73.97809102698362,Level 2,Level 2,CPF50,Reachable,AVAILABLE,NONE,Available,1,0,0,1,2025-11-19T10:24:50Z,0.0,2025-11-19T10:31:52.196106+00:00
NYC FLEET / NYPD_PSA4-2,130 Loisaida Ave,New York,New York,10009,40.72473746912288,-73.9780159251312,Level 2,Level 2,CPF50-L18,Unreachable,UNREACHABLE,NONE,Available,1,0,0,1,2025-10-18T10:36:25Z,0.0,2025-11-19T10:31:52.196106+00:00
NYC FLEET / NYPD_PSA4-3,136 Loisaida Ave,New York,New York,10009,40.72472120736568,-73.97794082327879,Level 2,Level 2,CPF50-L18,Reachable,AVAILABLE,NONE,Available,1,0,0,1,2025-11-19T10:24:50Z,0.0,2025-11-19T10:31:52.196106+00:00
NYC FLEET / NYPD_PSA4-4,130 Loisaida Ave,New York,New York,10009,40.72468055295528,-73.97786572142637,Level 2,Level 2,CPF50-L23,Reachable,AVAILABLE,NONE,Available,1,0,0,1,2025-11-19T10:24:50Z,0.0,2025-11-19T10:31:52.196106+00:00
NYC FLEET / NYPD_PSA4-5,126 Loisaida Ave,New York,New York,10009,40.72463989852004,-73.97779061957395,Level 2,Level 2,CPF50-L18,Unreachable,UNREACHABLE,NONE,Available,1,0,0,1,2025-06-19T10:40:18Z,0.0,2025-11-19T10:31:52.196106+00:00
NYC FLEET / NYPD_PSA4-6,126 Loisaida Ave,New York,New York,10009,40.72465616029711,-73.9777262465576,Level 2,Level 2,CPF50-L18,Reachable,AVAILABLE,NONE,Available,1,0,0,1,2025-11-19T10:24:50Z,0.0,2025-11-19T10:31:52.196106+00:00
NYC FLEET / NYPD_MIDNORTH-1,306 W 54th St,New York,New York,10019,40.76493534807263,-73.9850502558197,Level 2,Level 2,CPF50-L18,Reachable,AVAILABLE,NONE,Available,1,0,0,1,2025-11-19T10:24:37Z,0.0,2025-11-19T10:31:52.196106+00:00
NYC FLEET / NYPD_MIDNORTH-2,306 W 54th St,New York,New York,10019,40.7649434740368,-73.9849966116394,Level 2,Level 2,CPF50-L18,Reachable,AVAILABLE,NONE,Available,1,0,0,1,2025-11-19T10:24:37Z,0.0,2025-11-19T10:31:52.196106+00:00
NYC FLEET / NYPD_17PCT-1,167 E 51st St,New York,New York,10022,40.75674584607018,-73.97069996931153,Level 2,Level 2,CPF50-L18,Reachable,AVAILABLE,NONE,Available,1,0,0,1,2025-11-19T10:29:26Z,0.0,2025-11-19T10:31:52.196106+00:00
NYC FLEET / NYPD_17PCT-2,844 3rd Ave,New York,New York,10022,40.75675397303559,-73.97060340978699,Level 2,Level 2,CPF50-L18,Reachable,AVAILABLE,NONE,Available,1,0,0,1,2025-11-19T10:29:26Z,0.0,2025-11-19T10:31:52.196106+00:00
NYC FLEET / DOT_FRYTRM_2_L3,1 Bay St,Staten Island,New York,10301,40.6435198578525,-74.07187239944459,Level 3,Level 3,CPE250C-500-CCS1-CHD,Reachable,AVAILABLE,NONE,Available,1,0,0,1,2025-11-19T10:28:16Z,0.0,2025-11-19T10:31:52.196106+00:00
NYC FLEET / DOT_FRYTRM_3_L3,1 Bay St,Staten Island,New York,10301,40.644040866488595,-74.07263414680482,Level 3,Level 3,CPE250C-500-CCS1-CHD,Reachable,AVAILABLE,NONE,Available,1,0,0,1,2025-11-19T10:29:28Z,0.0,2025-11-19T10:31:52.196106+00:00
NYC FLEET / DOT_FRYTRM_1_L3,1 Bay St,Staten Island,New York,10301,40.64349340027419,-74.07203333198548,Level 3,Level 3,CPE250C-500-CCS1-CHD,Reachable,AVAILABLE,NONE,Available,1,0,0,1,2025-11-19T10:23:21Z,0.0,2025-11-19T10:31:52.196106+00:00
NYC FLEET / DOT_FRYMT_2_L3,1 Bay St,Staten Island,New York,10306,40.641598603357814,-74.07326714813233,Level 3,Level 3,CPE250C-500-CCS1-CHD,Reachable,AVAILABLE,NONE,Available,1,0,0,1,2025-11-19T10:21:58Z,0.0,2025-11-19T10:31:52.196106+00:00
NYC FLEET / DPR_BOROCREWS#1,50 West Dr,Brooklyn,New York,11215,40.66527,-73.974785,Level 2,Level 2,CT4020-HD2-GW-LTE,Reachable,INUSE,NONE,Available,2,0,1,1,2025-11-19T10:22:14Z,0.0,2025-11-19T10:31:52.196106+00:00
NYC FLEET / ACS_LINDEN-1,2554 Linden Blvd,Brooklyn,New York,11208,40.66763871076608,-73.86974790000001,Level 2,Level 2,CPF50-L18,Reachable,AVAILABLE,NONE,Available,1,0,0,1,2025-11-19T10:21:49Z,0.0,2025-11-19T10:31:52.196106+00:00
NYC FLEET / NYPD_BMS-1,59-06 Brooklyn Queens Expy,Queens,New York,11377,40.73655899399185,-73.90621425767212,Level 2,Level 2,CPF50-L18,Reachable,AVAILABLE,NONE,Available,1,0,0,1,2025-11-19T10:27:41Z,0.0,2025-11-19T10:31:52.196106+00:00
NYC FLEET / NYPD_BMS-2,5906 Laurel Hill Blvd,Queens,New York,11377,40.73653460568773,-73.90616061349182,Level 2,Level 2,CPF50-L18,Reachable,AVAILABLE,NONE,Available,1,0,0,1,2025-11-19T10:27:41Z,0.0,2025-11-19T10:31:52.196106+00:00
NYC FLEET / NYPD_BMS-3,59-06 Brooklyn Queens Expy,Queens,New York,11377,40.73656712342455,-73.9063000883606,Level 2,Level 2,CPF50-L18,Reachable,AVAILABLE,NONE,Available,1,0,0,1,2025-11-19T10:27:41Z,0.0,2025-11-19T10:31:52.196106+00:00
NYC FLEET / NYPD_BMS-4,59-06 Brooklyn Queens Expy,Queens,New York,11377,40.736469570166406,-73.90616061349182,Level 2,Level 2,CPF50-L18,Reachable,AVAILABLE,NONE,Available,1,0,0,1,2025-11-19T10:27:41Z,0.0,2025-11-19T10:31:52.196106+00:00
NYC FLEET / NYPD_BMS-5,5906 Laurel Hill Blvd,Queens,New York,11377,40.73644518182952,-73.90609624047546,Level 2,Level 2,CPF50-L18,Reachable,INUSE,NONE,Occupied,1,0,1,0,2025-11-19T10:27:41Z,0.0,2025-11-19T10:31:52.196106+00:00
NYC FLEET / NYPD_BMS-6,50-16 59th Pl,Queens,New York,11377,40.73644518182952,-73.90601040978699,Level 2,Level 2,CPF50-L18,Reachable,INUSE,NONE,Charging,1,1,0,0,2025-11-19T10:20:25Z,0.0,2025-11-19T10:31:52.196106+00:00
NYC FLEET / NYPD_BMS-7,59-06 Brooklyn Queens Expy,Queens,New York,11377,40.736599641145496,-73.90643956322937,Level 2,Level 2,CPF50-L18,Reachable,INUSE,NONE,Occupied,1,0,1,0,2025-11-19T10:20:25Z,0.0,2025-11-19T10:31:52.196106+00:00
NYC FLEET / NYPD_BMS-8,50-16 59th Pl,Queens,New York,11377,40.736469570166406,-73.90593530793457,Level 2,Level 2,CPF50-L18,Reachable,INUSE,NONE,Occupied,1,0,1,0,2025-11-19T10:20:25Z,0.0,2025-11-19T10:31:52.196106+00:00
NYC FLEET / HRA_11THAVE-3,260 11th Ave,New York,New York,10001,40.75076211173558,-74.00518157423973,Level 2,Level 2,CT4020-HD-GW,Reachable,INUSE,NONE,Available,2,0,1,1,2025-11-19T10:24:56Z,0.0,2025-11-19T10:31:52.196106+00:00
NYC FLEET / HRA_11THAVE-6,260 11th Ave,New York,New York,10001,40.75071537745929,-74.00508300305843,Level 2,Level 2,CT4020-HD2-GW-LTE,Reachable,AVAILABLE,NONE,Available,2,0,1,1,2025-11-19T10:23:43Z,0.0,2025-11-19T10:31:52.196106+00:00
NYC FLEET / HRA_11THAVE-5,260 11th Ave,New York,New York,10001,40.75058025425829,-74.00486105026245,Level 2,Level 2,CT4020-HD-GW,Reachable,INUSE,NONE,Available,2,0,1,1,2025-11-19T10:26:20Z,0.0,2025-11-19T10:31:52.196106+00:00
NYC FLEET / HRA_11THAVE-2,260 11th Ave,New York,New York,10001,40.75055790302566,-74.00466793121338,Level 2,Level 2,CT4020-HD2-GW-LTE,Reachable,AVAILABLE,NONE,Available,2,0,0,2,2025-11-19T10:24:52Z,0.0,2025-11-19T10:31:52.196106+00:00
NYC FLEET / HRA_11THAVE-1,260 11th Ave,New York,New York,10001,40.75073874460155,-74.00481277050018,Level 2,Level 2,CT4020-HD-GW,Reachable,INUSE,NONE,Occupied,2,0,2,0,2025-11-19T10:26:29Z,0.0,2025-11-19T10:31:52.196106+00:00
NYC FLEET / HRA_11THAVE-4,260 11th Ave,New York,New York,10001,40.750834245010566,-74.00460624040603,Level 2,Level 2,CT4020-HD2-GW-LTE,Reachable,AVAILABLE,NONE,Available,2,0,1,1,2025-11-19T10:24:20Z,0.0,2025-11-19T10:31:52.196106+00:00
NYC FLEET / DPR_BOROCREWS#2,50 West Dr,Brooklyn,New York,11215,40.66521,-73.97467,Level 2,Level 2,CT4020-HD2-GW-LTE,Reachable,INUSE,NONE,Charging,2,1,1,0,2025-11-19T10:26:42Z,0.0,2025-11-19T10:31:52.196106+00:00
NYC FLEET / DPR_BOROCREWS#3,50 West Dr,Brooklyn,New York,11215,40.665184,-73.97463,Level 2,Level 2,CT4020-HD2-GW-LTE,Reachable,AVAILABLE,NONE,Available,2,0,0,2,2025-11-19T10:21:18Z,0.0,2025-11-19T10:31:52.196106+00:00
NYC FLEET / DPR_BOROCREWS#4,50 West Dr,Brooklyn,New York,11215,40.66518,-73.974525,Level 2,Level 2,CT4020-HD2-GW-LTE,Reachable,INUSE,NONE,Occupied,2,0,2,0,2025-11-19T10:21:50Z,0.0,2025-11-19T10:31:52.196106+00:00
NYC FLEET / DPR_CWSSHOPS#10,850 E 138th St,The Bronx,New York,10454,40.80288,-73.908905,Level 2,Level 2,CT4020-HD2-GW-LTE,Reachable,AVAILABLE,NONE,Available,2,0,0,2,2025-11-19T10:21:24Z,0.0,2025-11-19T10:31:52.196106+00:00
NYC FLEET / DOE_Q142,142-10 Linden Blvd,Queens,New York,11436,40.683784,-73.80124,Level 2,Level 2,CT4020-HD2-GW-LTE,Reachable,INUSE,NONE,Occupied,2,0,2,0,2025-11-19T10:27:17Z,0.0,2025-11-19T10:31:52.196106+00:00
NYC FLEET / DPR_SHELTARMS#1,500 W 129th St,New York,New York,10027,40.81525,-73.95589,Level 2,Level 2,CT4020-HD2-GW-LTE,Reachable,AVAILABLE,NONE,Available,2,0,0,2,2025-11-19T10:24:51Z,0.0,2025-11-19T10:31:52.196106+00:00
NYC FLEET / NYPD_SRG2,1278 Sedgwick Ave,The Bronx,New York,10452,40.840282892703435,-73.92821334570952,Level 2,Level 2,CPF50-L18,Reachable,AVAILABLE,NONE,Available,1,0,0,1,2025-11-19T10:21:56Z,0.0,2025-11-19T10:31:52.196106+00:00
NYC FLEET / DEP_RED HOOK,63 Flushing Ave,Brooklyn,New York,11205,40.6986765,-73.97538850000001,Level 2,Level 2,CT4020-HD-GW,Reachable,AVAILABLE,NONE,Available,2,0,0,2,2025-11-19T10:26:19Z,0.0,2025-11-19T10:31:52.196106+00:00
NYC FLEET / DEP_ROCKAWAY106,106 Beach Channel Dr,Queens,New York,11694,40.5835202,-73.8291558,Level 2,Level 2,CT4020-HD-GW,Reachable,AVAILABLE,NONE,Available,2,0,0,2,2025-11-19T10:29:33Z,0.0,2025-11-19T10:31:52.196106+00:00
NYC FLEET / DEP_OWLS HE,6700 Shore Rd,Brooklyn,New York,11220,40.64188559999999,-74.03406159999997,Level 2,Level 2,CT4020-HD2-GW-LTE,Reachable,AVAILABLE,NONE,Available,2,0,1,1,2025-11-19T10:27:50Z,0.0,2025-11-19T10:31:52.196106+00:00
NYC FLEET / DEP_NEWTOWN CRE,329 Greenpoint Ave,Brooklyn,New York,11222,40.7316928,-73.94623050000001,Level 2,Level 2,CT4020-HD-GW,Reachable,AVAILABLE,NONE,Available,2,0,1,1,2025-11-19T10:22:02Z,0.0,2025-11-19T10:31:52.196106+00:00
NYC FLEET / DEP_OAKWOOD BEA,751 Mill Road,Staten Island,New York,10306,40.55047937263848,-74.1164086931152,Level 2,Level 2,CT4020-HD-GW,Reachable,INUSE,NONE,Occupied,2,0,2,0,2025-11-19T10:29:16Z,0.0,2025-11-19T10:31:52.196106+00:00
NYC FLEET / DEP_TALLMN_2_L3,127-01 Powell Cove Blvd,Queens,New York,11356,40.79383024167425,-73.8395505833557,Level 3,Level 3,CPE250C-500-CCS1-CHD,Reachable,AVAILABLE,NONE,Available,1,0,0,1,2025-11-19T10:27:57Z,0.0,2025-11-19T10:31:52.196106+00:00
NYC FLEET / DCAS_KENTAVE4,390 Kent Ave,Brooklyn,New York,11249,40.71147,-73.96838,Level 2,Level 2,CT4020-HD2-GW-LTE,Reachable,AVAILABLE,NONE,Available,2,0,1,1,2025-11-19T10:27:34Z,0.0,2025-11-19T10:31:52.196106+00:00
NYC FLEET / DEP_WT_PAEDERGA,1887 Ralph Ave,Brooklyn,New York,11234,40.63204169999999,-73.9183827,Level 2,Level 2,CT4020-HD-GW,Reachable,AVAILABLE,NONE,Available,2,0,0,2,2025-11-19T10:25:17Z,0.0,2025-11-19T10:31:52.196106+00:00
NYC FLEET / DEP_ CONEY ISLA,2501 Knapp St,Brooklyn,New York,11235,40.590773,-73.93188199999997,Level 2,Level 2,CT4020-HD-GW,Reachable,AVAILABLE,NONE,Available,2,0,0,2,2025-11-19T10:21:24Z,0.0,2025-11-19T10:31:52.196106+00:00
NYC FLEET / DEP_ASTORIA #1,43-1 Berrian Blvd,Queens,New York,11105,40.7787097,-73.89463439999997,Level 2,Level 2,CT4020-HD2-GW-LTE,Reachable,AVAILABLE,NONE,Available,2,0,0,2,2025-11-19T10:22:42Z,0.0,2025-11-19T10:31:52.196106+00:00
NYC FLEET / DPR_BOROCREWS#5,50 West Dr,Brooklyn,New York,11215,40.665123,-73.974556,Level 2,Level 2,CT4020-HD2-GW-LTE,Reachable,AVAILABLE,NONE,Available,2,0,0,2,2025-11-19T10:25:04Z,0.0,2025-11-19T10:31:52.196106+00:00
NYC FLEET / DEP_W135ST#1,725 W 135th St,New York,New York,10031,40.82131266186684,-73.95777181534424,Level 2,Level 2,CT4020-HD-GW,Reachable,AVAILABLE,NONE,Available,2,0,0,2,2025-11-19T10:29:03Z,0.0,2025-11-19T10:31:52.196106+00:00
NYC FLEET / DEP_WARDS ISLAN,Hell Gate Cir,New York,New York,10035,40.7887013,-73.92712949999998,Level 2,Level 2,CT4020-HD-GW,Reachable,AVAILABLE,NONE,Available,2,0,0,2,2025-11-19T10:26:17Z,0.0,2025-11-19T10:31:52.196106+00:00
NYC FLEET / DEP_WDRC#1,3525 State Highway 10,Deposit,New York,13754,42.0615893,-75.41286219999999,Level 2,Level 2,CT4020-HD2-GW-LTE,Unreachable,UNKNOWN,NONE,Available,2,0,0,2,,0.0,2025-11-19T10:31:52.196106+00:00
NYC FLEET / DOE_HERBLHS-1,3000 E Tremont Ave,The Bronx,New York,10462,40.840299700987096,-73.83942689021302,Level 2,Level 2,CPF50-L18,Reachable,AVAILABLE,NONE,Available,1,0,0,1,2025-11-19T10:25:24Z,0.0,2025-11-19T10:31:52.196106+00:00
NYC FLEET / DPR_MNBEACH-1,760 Oriental Blvd,Brooklyn,New York,11235,40.57698,-73.94351,Level 2,Level 2,CT4020-HD2-GW-LTE,Reachable,INUSE,NONE,Available,2,0,1,1,2025-11-19T10:26:57Z,0.0,2025-11-19T10:31:52.196106+00:00
NYC FLEET / DPR_CWSTURF#2,20 Randalls Island Park,New York,New York,10035,40.79316,-73.9239,Level 2,Level 2,CT4020-HD2-GW-LTE,Reachable,AVAILABLE,NONE,Available,2,0,1,1,2025-11-19T10:29:25Z,0.0,2025-11-19T10:31:52.196106+00:00
NYC FLEET / DPR_BAY8TH#2,330 Bay 8th St,Brooklyn,New York,11228,40.60561,-74.01779,Level 2,Level 2,CT4020-HD2-GW-LTE,Reachable,AVAILABLE,NONE,Available,2,0,0,2,2025-11-19T10:22:47Z,0.0,2025-11-19T10:31:52.196106+00:00
NYC FLEET / DPR_BAY8TH#1,Independence Ave,Brooklyn,New York,11228,40.605633,-74.017815,Level 2,Level 2,CT4020-HD2-GW-LTE,Reachable,AVAILABLE,NONE,Available,2,0,0,2,2025-11-19T10:27:39Z,0.0,2025-11-19T10:31:52.196106+00:00
NYC FLEET / DOEFACILITIES 1,44-36 Vernon Blvd,Queens,New York,11101,40.749858499999995,-73.95254989570083,Level 2,Level 2,CT4020-HD2-GW-LTE,Reachable,AVAILABLE,NONE,Available,2,0,0,2,2025-11-19T10:26:32Z,0.0,2025-11-19T10:31:52.196106+00:00
NYC FLEET / NYPD_MIDSOUTH1,357 W 35th St,New York,New York,10001,40.75389040000001,-73.9948404558197,Level 2,Level 2,CPF50-L18,Reachable,AVAILABLE,NONE,Available,1,0,0,1,2025-11-19T10:20:28Z,0.0,2025-11-19T10:31:52.196106+00:00
NYC FLEET / NYPD_MIDSOUTH2,357 W 35th St,New York,New York,10001,40.75389040000001,-73.99492628650817,Level 2,Level 2,CPF50-L18,Unreachable,NEEDS SERVICE,Station Unreachable,Available,1,0,0,1,2024-07-11T16:35:44Z,0.0,2025-11-19T10:31:52.196106+00:00
NYC FLEET / DPR_CPTENNIS#1,Central Park Gothic BridgeWest Dr,New York,New York,10128,40.789467,-73.96172,Level 2,Level 2,CT4020-HD2-GW-LTE,Reachable,INUSE,NONE,Available,2,0,1,1,2025-11-19T10:28:13Z,0.0,2025-11-19T10:31:52.196106+00:00
NYC FLEET / DPR_STARLTPK#1,1490 Sheridan Blvd,The Bronx,New York,10459,40.832706,-73.88299,Level 2,Level 2,CT4020-HD2-GW-LTE,Reachable,AVAILABLE,NONE,Available,2,0,0,2,2025-11-19T10:28:04Z,0.0,2025-11-19T10:31:52.196106+00:00
NYC FLEET / DOE_Q80103,49-16 Vernon Blvd,Queens,New York,11101,40.74297,-73.954254,Level 2,Level 2,CT4020-HD2-GW-LTE,Reachable,AVAILABLE,NONE,Available,2,0,0,2,2025-11-19T10:20:19Z,0.0,2025-11-19T10:31:52.196106+00:00
NYC FLEET / DOE_Q80104,49-16 Vernon Blvd,Queens,New York,11101,40.74298425729802,-73.9543256785389,Level 2,Level 2,CT4020-HD2-GW-LTE,Reachable,INUSE,NONE,Available,2,0,1,1,2025-11-19T10:25:03Z,0.0,2025-11-19T10:31:52.196106+00:00
NYC FLEET / DOC_FDC TRAILER,16-06 Hazen St,East Elmhurst,New York,11370,40.794068,-73.8923,Level 2,Level 2,CT4020-HD-GW,Reachable,AVAILABLE,NONE,Available,2,0,0,2,2025-11-19T10:21:20Z,0.0,2025-11-19T10:31:52.196106+00:00
NYC FLEET / DOE_JADAMSHS1,101-01 Rockaway Blvd,Queens,New York,11417,40.678604,-73.83697,Level 2,Level 2,CT4020-HD2-GW-LTE,Reachable,INUSE,NONE,Available,2,0,1,1,2025-11-19T10:22:34Z,0.0,2025-11-19T10:31:52.196106+00:00
NYC FLEET / NYPD122PCT-2,2320 Hylan Blvd,Staten Island,New York,10306,40.574156153783015,-74.10561418465575,Level 2,Level 2,CPF50-L18,Reachable,AVAILABLE,NONE,Available,1,0,0,1,2025-11-19T10:29:05Z,0.0,2025-11-19T10:31:52.196106+00:00
NYC FLEET / DEP_SMAINT_2_L3,350 Flushing Ave,Brooklyn,New York,11205,40.697968,-73.96055,Level 3,Level 3,CPE250C-500-CCS1-CHD,Reachable,AVAILABLE,NONE,Available,1,0,0,1,2025-11-19T10:24:32Z,0.0,2025-11-19T10:31:52.196106+00:00
NYC FLEET / DEP_SMAINT_1_L3,350 Flushing Ave,Brooklyn,New York,11205,40.69795376524104,-73.96053927116394,Level 3,Level 3,CPE250C-500-CCS1-CHD,Reachable,AVAILABLE,NONE,Available,1,0,0,1,2025-11-19T10:23:18Z,0.0,2025-11-19T10:31:52.196106+00:00
NYC FLEET / DEPROCKAWY_2_L3,106 Beach Channel Dr,Queens,New York,11694,40.583534,-73.82917,Level 3,Level 3,CPE250C-500-CCS1-CHD,Reachable,AVAILABLE,NONE,Available,1,0,0,1,2025-11-19T10:24:17Z,0.0,2025-11-19T10:31:52.196106+00:00
NYC FLEET / DEPROCKAWY_3_L3,106 Beach Channel Dr,Queens,New York,11694,40.583525851895935,-73.82906271163941,Level 3,Level 3,CPE250C-500-CCS1-CHD,Reachable,AVAILABLE,NONE,Available,1,0,0,1,2025-11-19T10:27:12Z,0.0,2025-11-19T10:31:52.196106+00:00
NYC FLEET / DEPROCKAWY_4_L3,106 Beach Channel Dr,Queens,New York,11694,40.583550296205196,-73.82924510185242,Level 3,Level 3,CPE250C-500-CCS1-CHD,Reachable,AVAILABLE,NONE,Available,1,0,0,1,2025-11-19T10:20:30Z,0.0,2025-11-19T10:31:52.196106+00:00
NYC FLEET / DEPROCKAWY_1_L3,106 Beach Channel Dr,Queens,New York,11694,40.58346881513954,-73.8292236441803,Level 3,Level 3,CPE250C-500-CCS1-CHD,Reachable,AVAILABLE,NONE,Available,1,0,0,1,2025-11-19T10:24:33Z,0.0,2025-11-19T10:31:52.196106+00:00
NYC FLEET / DEPROCKAWY_6_L3,106 Beach Channel Dr,Queens,New York,11694,40.5834769632506,-73.82920218650818,Level 3,Level 3,CPE250C-500-CCS1-CHD,Reachable,AVAILABLE,NONE,Available,1,0,0,1,2025-11-19T10:29:59Z,0.0,2025-11-19T10:31:52.196106+00:00
NYC FLEET / DEPROCKAWY_5_L3,106 Beach Channel Dr,Queens,New York,11694,40.583534,-73.82932020370484,Level 3,Level 3,CPE250C-500-CCS1-CHD,Reachable,AVAILABLE,NONE,Available,1,0,0,1,2025-11-19T10:24:32Z,0.0,2025-11-19T10:31:52.196106+00:00
NYC FLEET / DSNY_SI02-S1,2538 Richmond Ave,Staten Island,New York,10314,40.586502952258584,-74.16930019814758,Level 2,Level 2 - Solar,CT4010-HD2-GW-LTE,Reachable,AVAILABLE,NONE,Available,1,0,0,1,2025-11-19T10:27:19Z,0.0,2025-11-19T10:31:52.196106+00:00
NYC FLEET / DPR_WPP-S1,161 Chester Ave,Staten Island,New York,10312,40.520478561263026,-74.18498492800293,Level 2,Level 2 - Solar,CT4010-HD-GW,Reachable,AVAILABLE,NONE,Available,1,0,0,1,2025-11-19T10:22:57Z,0.0,2025-11-19T10:31:52.196106+00:00
NYC FLEET / DOC_DCFLEET,15 Hazen St,Queens,New York,11370,40.794976921552546,-73.88388561601639,Level 2,Level 2,CT4020-HD-GW,Unreachable,UNREACHABLE,NONE,Available,2,0,0,2,2025-11-17T20:30:28Z,0.0,2025-11-19T10:31:52.196106+00:00
NYC FLEET / DPRGREENTHUMB#2,25-10 Queens Plaza S,Queens,New York,11101,40.753757,-73.94668,Level 2,Level 2,CT4020-HD2-GW-LTE,Reachable,AVAILABLE,NONE,Available,2,0,0,2,2025-11-19T10:24:27Z,0.0,2025-11-19T10:31:52.196106+00:00
NYC FLEET / DEP_SIREPAIR-S2,182 Joline Ave,Staten Island,New York,10307,40.508020085410955,-74.2358076558197,Level 2,Level 2 - Solar,CT4010-HD-GW,Reachable,AVAILABLE,NONE,Available,1,0,0,1,2025-11-19T10:24:20Z,0.0,2025-11-19T10:31:52.196106+00:00
NYC FLEET / DPR_VCP-S5,David Sheridan Plaza,The Bronx,New York,10471,40.9046412129001,-73.89645038095092,Level 2,Level 2 - Solar,CT4010-HD-GW,Reachable,AVAILABLE,NONE,Available,1,0,0,1,2025-11-19T10:29:58Z,0.0,2025-11-19T10:31:52.196106+00:00
NYC FLEET / DEP_7WARDSI-S2,117 K Rd,New York,New York,10035,40.791513409386404,-73.92202510373954,Level 2,Level 2 - Solar,CT4010-HD-GW,Reachable,AVAILABLE,NONE,Available,1,0,0,1,2025-11-19T10:26:25Z,0.0,2025-11-19T10:31:52.196106+00:00
NYC FLEET / DPR_MARCSGARV#1,3 W 124th St,New York,New York,10027,40.80551,-73.942894,Level 2,Level 2,CT4020-HD2-GW-LTE,Reachable,AVAILABLE,NONE,Available,2,0,0,2,2025-11-19T10:25:59Z,0.0,2025-11-19T10:31:52.196106+00:00
NYC FLEET / DDC_HQ-S1,3030 Thomson Ave,Queens,New York,11101,40.74398125705431,-73.93609489814757,Level 2,Level 2 - Solar,CT4010-HD-GW,Unreachable,UNREACHABLE,NONE,Charging,1,1,0,0,2025-11-18T19:47:52Z,0.0,2025-11-19T10:31:52.196106+00:00
NYC FLEET / DOT_PIER36-S1,299 South St,New York,New York,10002,40.710032,-73.98485409999999,Level 2,Level 2 - Solar,CT4010-HD-GW,Reachable,AVAILABLE,NONE,Available,1,0,0,1,2025-11-19T10:23:03Z,0.0,2025-11-19T10:31:52.196106+00:00
NYC FLEET / DSNY_BK13_S1,2012 Neptune Ave,Brooklyn,New York,11224,40.5783882,-73.9880905,Level 2,Level 2 - Solar,CT4010-HD-GW,Reachable,AVAILABLE,NONE,Available,1,0,0,1,2025-11-19T10:24:47Z,0.0,2025-11-19T10:31:52.196106+00:00
NYC FLEET / DDC_HQ-S2,3030 Thomson Ave,Queens,New York,11101,40.743965,-73.93617,Level 2,Level 2 - Solar,CT4010-HD-GW,Unreachable,UNREACHABLE,NONE,Available,1,0,0,1,2025-08-06T22:15:40Z,0.0,2025-11-19T10:31:52.196106+00:00
